City_ID,City,Lat,Lng,Max Temp,Humidity,Cloudiness,Wind Speed,Country,Date
0,puerto natales,-51.7236,-72.4875,8.25,57,75,9.26,CL,1728580496
1,blackmans bay,-43.0167,147.3167,9.85,60,78,0.89,AU,1728580497
2,grytviken,-54.2811,-36.5092,-0.43,93,68,1.08,GS,1728580498
3,bethel,41.3712,-73.414,15.59,51,20,4.63,US,1728580499
4,sisimiut,66.9395,-53.6735,3.87,66,7,1.97,GL,1728580500
5,isafjordur,66.0755,-23.124,2.02,80,100,9.26,IS,1728580501
6,adamstown,-25.066,-130.1015,20.86,86,100,7.45,PN,1728580502
7,edinburgh of the seven seas,-37.0676,-12.3116,12.61,74,83,14.57,SH,1728580503
8,hirara,24.8,125.2833,24.92,78,75,5.66,JP,1728580504
9,alice springs,-23.7,133.8833,16.75,27,34,3.09,AU,1728580505
10,yangi qal'ah,37.4657,69.6113,21.61,33,0,1.4,AF,1728580506
11,ilulissat,69.2167,-51.1,1.01,47,20,3.09,GL,1728580508
12,taltal,-25.4,-70.4833,17.33,61,0,3.12,CL,1728580509
13,yukhnov,54.7444,35.2297,10.05,79,19,3.33,RU,1728580510
14,port-aux-francais,-49.35,70.2167,2.29,87,100,14.41,TF,1728580511
15,waitangi,-43.9535,-176.5597,6.01,88,73,5.41,NZ,1728580512
16,nhlangano,-27.1167,31.2,21.77,47,8,3.07,SZ,1728580513
17,constantia,44.1833,28.65,18.38,61,0,2.53,RO,1728580514
18,stanley,54.868,-1.6985,6.4,71,20,2.06,GB,1728580515
19,caleta de carquin,-11.0925,-77.6267,19.69,79,70,4.66,PE,1728580516
20,tabou,4.423,-7.3528,26.31,81,75,3.34,CI,1728580517
21,cabo san lucas,22.8909,-109.9124,30.84,75,40,5.66,MX,1728580208
22,gebeit,21.0667,36.3167,30.44,29,92,2.98,SD,1728580520
23,avarua,-21.2078,-159.775,23.03,73,40,6.17,CK,1728580521
24,lethem,3.3803,-59.7968,36.9,32,58,3.9,GY,1728580522
25,olonkinbyen,70.9221,-8.7187,-2.93,85,100,17.28,SJ,1728580523
26,papatowai,-46.5619,169.4708,5.95,86,13,2.48,NZ,1728580524
27,puerto ayora,-0.7393,-90.3518,21.97,91,82,2.68,EC,1728580525
28,puerto baquerizo moreno,-0.9,-89.6,23.55,88,40,33.44,EC,1728580526
29,ushuaia,-54.8,-68.3,6.81,70,75,7.72,AR,1728580527
30,bikenibeu village,1.3673,173.1241,26.98,83,40,1.54,KI,1728580528
31,gadzhiyevo,69.2551,33.3362,3.32,77,100,10.2,RU,1728580529
32,al khafji,28.4391,48.4913,29.76,51,0,2.99,SA,1728580531
33,sirte,31.2089,16.5887,29.0,61,62,4.3,LY,1728580532
34,sang-e charak,35.8497,66.4369,16.32,43,0,1.24,AF,1728580533
35,el calafate,-50.3408,-72.2768,7.43,59,20,5.9,AR,1728580534
36,albany,42.6001,-73.9662,11.92,62,52,1.79,US,1728580344
37,kone,-21.0595,164.8658,17.53,94,7,1.3,NC,1728580536
38,remire-montjoly,4.9167,-52.2667,33.02,58,40,6.69,GF,1728580538
39,rurrenabaque,-14.4413,-67.5278,34.83,58,40,2.06,BO,1728580539
40,paita,-5.0892,-81.1144,22.54,68,72,5.96,PE,1728580540
41,yellowknife,62.456,-114.3525,3.01,100,75,1.54,CA,1728580503
42,the pas,53.8251,-101.2541,11.01,76,75,2.57,CA,1728580543
43,hasaki,35.7333,140.8333,19.63,69,49,7.12,JP,1728580544
44,chulakkurgan,43.765,69.1814,14.6,53,59,0.65,KZ,1728580545
45,dunedin,-45.8742,170.5036,6.19,75,36,2.2,NZ,1728580546
46,konskie,51.1917,20.4061,17.23,71,97,5.56,PL,1728580547
47,tolanaro,-25.0319,46.9987,23.04,78,20,9.77,MG,1728580548
48,talnakh,69.4865,88.3972,-8.38,93,95,4.96,RU,1728580550
49,vila franca do campo,37.7167,-25.4333,22.23,89,32,10.81,PT,1728580552
50,enewetak,11.3474,162.3373,28.4,77,96,4.01,MH,1728580553
51,invercargill,-46.4,168.35,5.57,89,32,2.68,NZ,1728580554
52,funadhoo,6.15,73.2667,26.83,84,99,10.73,MV,1728580555
53,iqaluit,63.7506,-68.5145,2.85,69,20,1.54,CA,1728580556
54,motygino,58.1831,94.7592,-4.93,82,45,2.67,RU,1728580557
55,nurota,40.5614,65.6886,19.74,41,11,4.73,UZ,1728580558
56,keflavik,64.0049,-22.5624,2.24,69,40,7.72,IS,1728580559
57,saudarkrokur,65.7461,-19.6394,0.78,91,79,7.35,IS,1728580560
58,punta arenas,-53.15,-70.9167,8.06,71,40,9.77,CL,1728580561
59,kenai,60.5544,-151.2583,2.86,94,100,1.54,US,1728580385
60,usogorsk,63.4106,48.6872,-0.53,53,100,4.78,RU,1728580564
61,luderitz,-26.6481,15.1594,16.34,68,0,6.19,NA,1728580565
62,east end,34.5507,-92.341,25.44,41,0,0.89,US,1728580567
63,georgetown,5.4112,100.3354,26.96,88,20,1.03,MY,1728580568
64,hithadhoo,-0.6,73.0833,27.74,77,100,8.49,MV,1728580569
65,elk city,35.412,-99.4043,26.99,36,0,3.6,US,1728580570
66,lata,40.1629,-8.3327,18.58,58,11,2.1,PT,1728580571
67,vilyuysk,63.7553,121.6247,-8.85,98,95,1.32,RU,1728580572
68,san patricio,28.017,-97.5169,31.97,33,2,1.41,US,1728580573
69,ribeira grande,38.5167,-28.7,23.21,78,75,10.29,PT,1728580576
70,nchelenge,-9.3451,28.734,25.61,57,83,3.6,ZM,1728580577
71,khanty-mansiysk,61.0042,69.0019,-0.94,64,40,3.0,RU,1728580475
72,port lavaca,28.615,-96.6261,31.14,33,0,2.57,US,1728580563
73,sosnovo-ozerskoye,52.5249,111.5418,-4.58,85,9,3.89,RU,1728580580
74,hamilton,39.1834,-84.5333,20.99,43,0,2.57,US,1728580581
75,ghanzi,-21.5667,21.7833,27.33,16,2,4.39,BW,1728580582
76,laojunmiao,39.8333,97.7333,9.43,38,41,1.0,CN,1728580583
77,bage,-31.3314,-54.1069,18.88,82,100,8.23,BR,1728580584
78,margaret river,-33.95,115.0667,13.48,59,22,4.51,AU,1728580585
79,tazovsky,67.4667,78.7,-2.11,88,94,8.48,RU,1728580587
80,bredasdorp,-34.5322,20.0403,15.6,67,100,4.98,ZA,1728580588
81,sao vicente,-23.9631,-46.3919,22.77,26,100,2.24,BR,1728580393
82,vorkuta,67.5,64.0,-8.7,97,14,0.57,RU,1728580591
83,qaqortoq,60.7167,-46.0333,3.2,80,20,5.41,GL,1728580592
84,kerikeri,-35.2268,173.9474,9.95,88,99,0.45,NZ,1728580593
85,udachny,66.4167,112.4,-14.38,100,91,1.06,RU,1728580594
86,kapa'a,22.0752,-159.319,26.18,95,75,6.17,US,1728580595
87,mount isa,-20.7333,139.5,21.87,11,0,4.63,AU,1728580597
88,klyuchi,52.2667,79.1667,7.31,43,100,6.79,RU,1728580598
89,chancay,-11.5714,-77.2672,18.97,81,70,3.16,PE,1728580599
90,norilsk,69.3535,88.2027,-7.56,95,99,4.22,RU,1728580600
91,lebu,-37.6167,-73.65,13.79,71,66,2.92,CL,1728580601
92,atafu village,-8.5421,-172.5159,27.89,75,72,4.74,TK,1728580602
93,cooma,-36.2333,149.1333,3.63,95,0,1.23,AU,1728580603
94,la passe,45.5549,-0.8967,15.47,80,4,4.07,FR,1728580604
95,morehead city,34.7229,-76.726,20.59,64,100,5.81,US,1728580605
96,anadyr,64.75,177.4833,0.28,80,75,9.0,RU,1728580607
97,rosario do sul,-30.2583,-54.9142,17.23,94,100,5.42,BR,1728580608
98,aasiaat,68.7098,-52.8699,-1.49,59,7,8.41,GL,1728580609
99,rumonge,-3.9736,29.4386,24.07,78,72,1.2,BI,1728580610
100,kimbe,-5.5502,150.1429,24.05,94,100,1.73,PG,1728580611
101,college,64.8569,-147.8028,-0.52,89,100,2.57,US,1728580612
102,dhidhdhoo,6.8833,73.1,26.85,85,100,10.63,MV,1728580613
103,piti village,13.4626,144.6933,28.03,92,100,4.7,GU,1728580614
104,al jabin,14.704,43.599,23.13,70,4,1.41,YE,1728580615
105,melfort,52.8667,-104.6177,10.07,71,100,1.54,CA,1728580616
106,morada nova,-5.1067,-38.3725,38.83,20,99,2.74,BR,1728580618
107,pisco,-13.7,-76.2167,19.03,77,0,4.63,PE,1728580619
108,whitehorse,60.7161,-135.0538,2.43,87,75,4.63,CA,1728580620
109,lazaro cardenas,17.9583,-102.2,27.97,76,100,0.88,MX,1728580621
110,lokoja,7.8024,6.743,28.08,77,77,1.37,NG,1728580622
111,saipan,15.1355,145.701,28.39,83,20,2.06,MP,1728580623
112,selfoss,63.9331,-20.9971,2.25,54,87,6.33,IS,1728580624
113,solwezi,-12.1688,26.3894,22.15,19,2,1.87,ZM,1728580625
114,ketchikan,55.3422,-131.6461,8.26,93,75,4.63,US,1728580626
115,obihiro,42.9172,143.2044,9.3,74,100,1.82,JP,1728580627
116,tingi,-11.3,35.0333,19.1,72,63,3.89,TZ,1728580628
117,neiafu,-18.65,-173.9833,24.38,88,40,3.6,TO,1728580630
118,kayyerkan,69.3786,87.7439,-5.68,92,100,6.3,RU,1728580631
119,ta`u,-14.2336,-169.5144,26.84,76,58,8.36,AS,1728580632
120,rasht,37.2808,49.5832,19.9,100,4,0.0,IR,1728580633
121,toungo,8.1167,12.05,23.82,84,21,1.0,NG,1728580634
122,turpan,42.9333,89.1667,20.85,25,0,0.86,CN,1728580635
123,ulaangom,49.9811,92.0667,6.41,58,56,0.37,MN,1728580636
124,wenchang,30.904,118.4887,16.67,75,92,1.28,CN,1728580637
125,murzuq,25.9155,13.9184,33.16,17,0,2.78,LY,1728580638
126,kachia,9.8667,7.95,24.45,82,15,2.54,NG,1728580639
127,short pump,37.6504,-77.6125,18.39,53,0,3.09,US,1728580640
128,floro,61.5996,5.0328,6.98,70,20,4.12,NO,1728580642
129,magistral'nyy,56.1725,107.4458,-0.56,78,100,2.04,RU,1728580643
130,karratha,-20.7377,116.8463,27.81,40,16,4.56,AU,1728580644
131,tiksi,71.6872,128.8694,-7.87,94,98,2.15,RU,1728580645
132,port elizabeth,-33.918,25.5701,17.16,92,20,11.83,ZA,1728580646
133,okha,53.5739,142.9478,6.06,82,83,6.69,RU,1728580647
134,idri,27.5,13.2667,34.62,16,0,2.18,LY,1728580648
135,zaozersk,69.4005,32.4476,2.5,85,100,9.24,RU,1728580649
136,lihue,21.9789,-159.3672,25.77,73,75,6.17,US,1728580650
137,badger,64.8,-147.5333,-0.57,91,100,2.57,US,1728580651
138,russkaya polyana,49.417,31.9201,17.91,65,86,2.79,UA,1728580652
139,lompoc,34.6391,-120.4579,14.4,100,100,0.0,US,1728580654
140,diawara,15.022,-12.5437,32.47,49,100,3.26,SN,1728580655
141,berdigestyakh,62.0989,126.6992,0.6,99,100,1.81,RU,1728580656
142,chibougamau,49.9168,-74.3659,7.79,71,100,5.66,CA,1728580659
143,prades,42.5833,2.1667,10.73,65,89,1.86,FR,1728580660
144,alofi,-19.0595,-169.9187,21.94,94,75,5.14,NU,1728580661
145,hawaiian paradise park,19.5933,-154.9731,23.28,98,100,0.45,US,1728580663
146,saint-philippe,-21.3585,55.7679,21.64,80,80,4.98,RE,1728580665
147,horneburg,53.5067,9.5755,10.92,81,0,7.72,DE,1728580666
148,kimje,35.8017,126.8889,14.94,88,0,0.98,KR,1728580667
149,bubaque,11.2833,-15.8333,26.03,82,100,8.39,GW,1728580668
150,skeldon,5.8833,-57.1333,31.6,56,100,4.37,GY,1728580669
151,wailua homesteads,22.0669,-159.378,25.44,95,75,6.17,US,1728580670
152,milicz,51.5277,17.2714,15.44,86,94,3.61,PL,1728580671
153,kharp,66.8014,65.8081,-7.26,91,8,3.19,RU,1728580673
154,acarau,-2.8856,-40.12,30.23,59,91,9.48,BR,1728580674
155,kideksha,56.4167,40.5167,4.79,92,85,3.48,RU,1728580675
156,hadibu,12.65,54.0333,26.31,77,16,0.56,YE,1728580676
157,thompson,55.7435,-97.8558,11.09,71,75,3.6,CA,1728580677
158,haiku-pauwela,20.9219,-156.3051,25.02,86,76,0.45,US,1728580678
159,shimoda,34.6667,138.95,18.1,79,64,5.2,JP,1728580679
160,yanji,42.9075,129.5078,5.65,82,28,0.65,CN,1728580680
161,mana,5.6592,-53.7767,30.19,66,76,4.4,GF,1728580681
162,bilibino,68.0546,166.4372,-15.62,97,56,1.73,RU,1728580682
163,espinosa,-14.9261,-42.8192,34.17,30,40,5.15,BR,1728580684
164,minzhu,43.7286,127.3447,3.17,90,1,0.91,CN,1728580685
165,imphal,24.8167,93.95,18.84,96,66,0.64,IN,1728580686
166,jayapura,-2.5333,140.7,23.66,93,60,1.91,ID,1728580687
167,hangu,39.2489,117.7892,14.06,40,0,3.33,CN,1728580688
168,santa cruz,-17.8,-63.1667,27.03,78,40,5.66,BO,1728580603
169,celestun,20.8667,-90.4,29.07,56,97,4.83,MX,1728580690
170,carnarvon,-24.8667,113.6333,22.93,67,0,3.2,AU,1728580691
171,petrovskaya,45.4314,37.955,17.77,68,100,3.03,RU,1728580692
172,saint-pierre,-21.3393,55.4781,22.82,68,0,8.75,RE,1728580693
173,vadso,70.0744,29.7487,4.09,75,100,5.66,NO,1728580694
174,port-gentil,-0.7193,8.7815,26.31,78,95,4.18,GA,1728580696
175,tura,25.5198,90.2201,22.55,93,8,1.4,IN,1728580697
176,tafuna,-14.3358,-170.72,26.97,89,75,7.72,AS,1728580698
177,utrik,11.2278,169.8474,27.94,79,97,4.83,MH,1728580699
178,panaba,21.2833,-88.2667,27.7,78,64,4.47,MX,1728580700
179,enoch,37.7733,-113.0244,25.26,23,50,1.79,US,1728580701
180,portland,45.5234,-122.6762,12.27,89,100,1.54,US,1728580686
181,stillwater,36.1156,-97.0584,28.95,33,0,6.17,US,1728580703
182,fortuna,40.5982,-124.1573,16.63,91,0,1.34,US,1728580704
183,mahibadhoo,3.7833,72.9667,27.72,81,100,8.87,MV,1728580705
184,ixtapa,20.7,-105.2,30.13,74,20,3.6,MX,1728580708
185,sao felix do xingu,-6.6447,-51.995,41.21,14,9,2.29,BR,1728580709
186,adh dhibiyah,24.5014,45.9686,28.22,14,0,5.09,SA,1728580710
187,bamboo flat,11.7,92.7167,28.05,78,20,1.03,IN,1728580711
188,misratah,32.3754,15.0925,29.32,51,0,4.02,LY,1728580713
189,castillos,-34.1667,-53.8333,18.53,73,92,5.38,UY,1728580714
190,west island,-12.1568,96.8225,25.99,83,75,6.69,CC,1728580715
191,port alfred,-33.5906,26.891,17.88,91,70,3.58,ZA,1728580717
192,al mishkhab,31.8042,44.4911,27.06,11,0,1.8,IQ,1728580718
193,tarija,-21.5355,-64.7296,19.95,56,75,6.17,BO,1728580719
194,menaka,15.9182,2.4022,38.98,16,44,3.88,ML,1728580720
195,pueblo nuevo,23.3833,-105.3833,20.52,35,56,1.23,MX,1728580721
196,coquimbo,-29.9533,-71.3436,16.85,72,75,4.63,CL,1728580722
197,garango,11.8,-0.5506,32.66,50,23,1.81,BF,1728580723
198,salinopolis,-0.6136,-47.3561,29.75,66,32,4.63,BR,1728580724
199,campo maior,-4.8278,-42.1686,42.09,16,55,2.19,BR,1728580725
200,port mathurin,-19.6833,63.4167,22.54,83,99,10.64,MU,1728580726
201,taulaga,-11.0553,-171.0883,27.54,77,69,5.62,AS,1728580728
202,khandyga,62.6667,135.6,-0.65,76,100,2.86,RU,1728580729
203,kaduy,59.2,37.15,6.26,86,100,5.61,RU,1728580730
204,dudinka,69.4058,86.1778,-6.37,92,87,6.1,RU,1728580731
205,khyzy,40.9058,49.0813,13.88,81,88,1.3,AZ,1728580732
206,itoman,26.1247,127.6694,20.61,65,16,3.46,JP,1728580733
207,buon ma thuot,12.6667,108.05,22.05,85,24,2.34,VN,1728580734
208,koungou,-12.7336,45.2042,24.84,83,0,1.03,YT,1728580735
209,newman,37.3138,-121.0208,23.92,53,89,1.34,US,1728580736
210,nemuro,43.3236,145.575,12.41,69,100,10.95,JP,1728580737
211,arraial do cabo,-22.9661,-42.0278,21.98,100,100,7.72,BR,1728580738
212,inirida,3.8653,-67.9239,35.89,40,86,1.47,CO,1728580740
213,kodiak,57.79,-152.4072,-3.27,100,0,3.09,US,1728580741
214,jamestown,42.097,-79.2353,13.34,59,40,4.12,US,1728580742
215,mochudi,-24.4167,26.15,30.33,20,63,2.68,BW,1728580743
216,flin flon,54.7682,-101.865,8.91,87,75,3.6,CA,1728580744
217,porto novo,6.4965,2.6036,28.9,74,17,3.69,BJ,1728580745
218,mora,11.0461,14.1401,27.58,59,31,2.7,CM,1728580746
219,sferracavallo,42.726,12.0956,19.8,93,78,5.77,IT,1728580747
220,vilyuchinsk,52.9306,158.4028,-0.85,70,0,3.34,RU,1728580748
221,gadani,25.1185,66.7299,28.06,73,0,4.94,PK,1728580749
222,hammerfest,70.6634,23.6821,4.25,70,20,3.09,NO,1728580751
223,jaffa,32.0504,34.7522,25.09,71,20,2.57,IL,1728580752
224,kismayo,-0.3582,42.5454,25.12,83,14,6.5,SO,1728580753
225,chos malal,-37.3781,-70.2709,23.61,24,32,8.21,AR,1728580754
226,hermanus,-34.4187,19.2345,15.45,76,98,6.95,ZA,1728580755
227,illapel,-31.6308,-71.1653,15.88,68,100,3.24,CL,1728580756
228,altay,47.8667,88.1167,7.03,43,5,0.8,CN,1728580757
229,dungarpur,23.8333,73.7167,26.37,50,100,2.99,IN,1728580758
230,san antonio de pale,-1.4014,5.6325,25.01,78,75,3.56,GQ,1728580759
231,carloforte,39.145,8.3058,20.24,77,88,7.73,IT,1728580760
232,weno,7.4515,151.8468,26.97,83,100,1.54,FM,1728580762
233,longyearbyen,78.2186,15.6401,3.91,75,75,10.29,SJ,1728580763
234,cholpon-ata,42.6494,77.0823,12.58,66,63,0.2,KG,1728580764
235,mejit,10.2753,170.8646,28.13,76,93,4.72,MH,1728580765
236,alo,6.5486,4.2686,26.92,81,28,2.91,NG,1728580766
237,argostolion,38.1811,20.489,25.97,48,20,1.54,GR,1728580767
238,malaga,36.7202,-4.4203,23.74,41,20,5.66,ES,1728580768
239,beruniy,41.6911,60.7525,16.98,59,0,3.09,UZ,1728580769
240,mwinilunga,-11.7358,24.4293,23.19,18,10,1.67,ZM,1728580770
241,kingston,17.997,-76.7936,32.87,74,20,4.12,JM,1728580771
242,galveston,29.3669,-94.9669,29.44,45,0,4.12,US,1728580772
243,port douglas,-16.4833,145.4667,24.03,84,56,3.79,AU,1728580774
244,blonie,52.1985,20.6171,20.06,65,87,6.17,PL,1728580775
245,ust-nera,64.5667,143.2,-6.78,77,95,1.96,RU,1728580776
246,tuy hoa,13.0833,109.3,24.73,93,45,1.1,VN,1728580777
247,santa catalina,9.3337,122.8637,26.43,84,88,1.33,PH,1728580778
248,yanchep,-31.55,115.6833,17.39,79,3,3.01,AU,1728580779
249,ko pha ngan,9.7578,100.0291,25.51,78,68,2.88,TH,1728580780
250,visby,57.6409,18.296,15.12,94,75,7.72,SE,1728580781
251,fort mcmurray,56.7268,-111.381,9.77,61,100,2.57,CA,1728580782
252,chadan,51.2833,91.5833,7.94,60,97,1.41,RU,1728580783
253,sungai penuh,-2.0833,101.3833,19.14,93,56,1.51,ID,1728580784
254,olinda,-8.0089,-34.8553,28.85,65,20,5.14,BR,1728580786
255,petropavlovsk-kamchatsky,53.0452,158.6483,-1.67,64,0,4.0,RU,1728580787
256,anori,-3.7728,-61.6442,41.74,18,45,2.26,BR,1728580788
257,chernyshevsk,52.5243,117.0174,-0.82,61,37,2.3,RU,1728580789
258,mota del cuervo,39.5101,-2.8738,18.35,37,23,3.95,ES,1728580790
259,al hudaydah,14.7978,42.9545,31.52,68,1,3.55,YE,1728580791
260,la gi,10.6667,107.7833,26.27,90,100,2.94,VN,1728580792
261,arteche,12.2645,125.4048,25.58,90,17,1.16,PH,1728580793
262,east london,-33.0153,27.9116,18.52,82,75,8.75,ZA,1728580794
263,valparaiso,-33.0393,-71.6273,13.8,100,100,4.12,CL,1728580795
264,tarinkot,32.6268,65.8733,18.96,23,0,1.0,AF,1728580796
265,solnechnyy,50.7214,136.6319,4.72,67,100,2.41,RU,1728580799
266,kourou,5.1552,-52.6478,31.67,56,38,4.0,GF,1728580800
267,talara,-4.5772,-81.2719,24.42,69,75,5.66,PE,1728580801
268,sorong,-0.8833,131.25,26.86,85,100,4.88,ID,1728580802
269,bathsheba,13.2167,-59.5167,32.34,62,20,7.2,BB,1728580803
270,nar'yan-mar,67.6713,53.087,-2.64,83,9,6.16,RU,1728580804
271,brookings,44.3114,-96.7984,25.62,45,0,5.66,US,1728580805
272,hotan,37.0997,79.9269,17.62,31,41,2.83,CN,1728580806
273,qamdo,31.1667,97.2333,6.22,58,70,0.89,CN,1728580807
274,yarmouth,41.7057,-70.2286,14.49,67,40,8.05,US,1728580809
275,ponta delgada,37.7333,-25.6667,22.4,88,40,14.92,PT,1728580810
276,groningen,53.25,6.75,11.12,74,40,3.09,NL,1728580811
277,vershino-darasunskiy,52.35,115.5167,-3.72,75,20,2.52,RU,1728580812
278,maintirano,-18.0667,44.0167,25.77,77,30,4.51,MG,1728580813
279,pizarro,4.9533,-77.366,25.45,91,97,3.15,CO,1728580814
280,nova sintra,14.8667,-24.7167,26.39,80,8,10.56,CV,1728580815
281,hilo,19.7297,-155.09,23.4,94,100,0.89,US,1728580629
282,gisborne,-38.6533,178.0042,11.35,77,99,2.4,NZ,1728580817
283,uturoa,-16.7333,-151.4333,25.47,77,100,6.36,PF,1728580818
284,jiangzi,28.95,89.6333,3.43,54,19,2.6,CN,1728580819
285,banda aceh,5.5577,95.3222,26.94,78,100,5.86,ID,1728580821
286,alvinopolis,-20.1067,-43.0489,21.67,92,100,1.86,BR,1728580822
287,smithers,54.7804,-127.1743,1.18,100,75,2.57,CA,1728580823
288,campo gallo,-26.5833,-62.85,14.83,90,100,3.56,AR,1728580824
289,pacific grove,36.6177,-121.9166,18.57,92,0,4.02,US,1728580535
290,hepingjie,42.0597,126.9158,3.63,88,4,0.6,CN,1728580826
291,al kharijah,25.4514,30.5464,29.89,26,0,5.21,EG,1728580827
292,sur,22.5667,59.5289,28.61,60,0,1.9,OM,1728580828
293,egilsstadir,65.2653,-14.3948,-1.05,100,75,1.54,IS,1728580829
294,balqash,46.8481,74.995,14.52,54,40,3.52,KZ,1728580681
295,ancud,-41.8697,-73.8203,9.1,95,100,3.29,CL,1728580831
296,nova vicosa,-17.8919,-39.3719,28.27,64,87,5.42,BR,1728580833
297,igarka,67.4667,86.5833,-5.06,92,98,6.87,RU,1728580834
298,codrington,-38.2667,141.9667,6.04,88,10,3.16,AU,1728580835
299,geraldton,-28.7667,114.6,19.23,72,5,5.66,AU,1728580836
300,palmer,42.1584,-72.3287,15.17,45,20,6.17,US,1728580837
301,molina de segura,38.0546,-1.2076,25.45,35,20,1.03,ES,1728580838
302,uray,60.1247,64.7758,-2.92,64,6,4.3,RU,1728580839
303,lerwick,60.1545,-1.1494,6.41,59,97,6.98,GB,1728580840
304,fort bragg,35.139,-79.006,20.75,39,0,6.17,US,1728580841
305,gizo,-8.103,156.8419,27.26,79,80,3.45,SB,1728580842
306,gua musang,4.8823,101.9644,23.64,100,100,0.96,MY,1728580843
307,gandajika,-6.75,23.95,21.51,81,81,2.68,CD,1728580845
308,kavaratti,10.5669,72.642,26.14,89,100,6.93,IN,1728580846
309,el granada,37.5027,-122.4694,19.51,84,75,5.14,US,1728580713
310,keetmanshoop,-26.5833,18.1333,34.51,10,0,4.63,NA,1728580848
311,afaahiti,-17.75,-149.2833,22.49,90,100,8.55,PF,1728580849
312,halifax,44.6453,-63.5724,14.01,76,75,7.2,CA,1728580717
313,novodvinsk,64.4165,40.8122,1.86,96,100,6.25,RU,1728580851
314,kuluncak,38.8828,37.6728,18.5,27,66,2.23,TR,1728580852
315,donnacona,46.6804,-71.7239,11.75,62,100,3.67,CA,1728580853
316,iskateley,67.6803,53.1512,-2.66,83,8,6.1,RU,1728580854
317,payson,40.0444,-111.7321,23.54,21,86,0.89,US,1728580855
318,kalemie,-5.9475,29.1947,23.24,72,39,0.68,CD,1728580857
319,el abiodh sidi cheikh,32.893,0.5484,28.46,25,54,0.67,DZ,1728580858
320,hobyo,5.3505,48.5268,25.83,84,91,11.23,SO,1728580859
321,macapa,0.0389,-51.0664,33.99,55,20,3.6,BR,1728580860
322,mason city,43.1536,-93.201,21.67,46,0,4.12,US,1728580861
323,nyurba,63.2842,118.3319,-5.14,98,99,0.98,RU,1728580862
324,dompierre-sur-mer,46.1882,-1.0635,15.95,85,0,4.12,FR,1728580863
325,new norfolk,-42.7826,147.0587,9.95,68,71,3.98,AU,1728580864
326,aykhal,66.0,111.5,-12.64,100,100,0.85,RU,1728580866
327,mermoz boabab,14.7065,-17.4758,26.88,89,75,7.2,SN,1728580868
328,neryungri,56.6709,124.6491,0.06,97,100,1.7,RU,1728580869
329,pleasanton,37.6624,-121.8747,20.92,70,0,1.79,US,1728580870
330,sena madureira,-9.0656,-68.6569,34.37,41,100,1.03,BR,1728580871
331,richards bay,-28.783,32.0377,22.28,78,25,7.03,ZA,1728580872
332,san luis de la loma,17.2706,-100.8939,28.27,77,83,1.21,MX,1728580873
333,chonchi,-42.6128,-73.8092,11.18,98,100,1.13,CL,1728580874
334,murghob,38.1702,73.9667,-0.45,50,45,3.39,TJ,1728580875
335,marang,5.2056,103.2059,25.95,90,79,1.52,MY,1728580876
336,zabid,14.1951,43.3152,32.82,49,0,2.18,YE,1728580878
337,sabinov,49.1031,21.0988,14.69,86,82,1.31,SK,1728580880
338,itaituba,-4.2761,-55.9836,36.09,52,40,2.06,BR,1728580882
339,thunder bay,48.4001,-89.3168,16.95,48,75,5.14,CA,1728580883
340,casper,42.8666,-106.3131,24.29,18,0,7.2,US,1728580884
341,kapuskasing,49.4169,-82.4331,12.05,58,20,4.63,CA,1728580886
342,kolonia,50.9333,6.95,13.31,79,20,3.6,DE,1728580888
343,tofol,5.3248,163.0078,27.75,75,73,2.29,FM,1728580889
344,san andres,12.5847,-81.7006,29.01,84,20,2.57,CO,1728580890
345,malvan,16.0667,73.4667,26.64,90,100,7.25,IN,1728580891
346,kuala terengganu,5.3302,103.1408,25.97,94,20,1.03,MY,1728580892
347,nadym,65.5333,72.5167,-1.35,69,100,7.55,RU,1728580893
348,korla,41.7597,86.1469,17.37,36,0,0.98,CN,1728580894
349,tsiombe,-25.3,45.4833,22.63,75,0,5.43,MG,1728580895
350,tambopata,-12.7333,-69.1833,29.94,66,40,3.6,PE,1728580896
351,broken hill,-31.95,141.4333,12.58,51,86,8.25,AU,1728580897
352,sechura,-5.5569,-80.8222,25.15,57,58,4.93,PE,1728580898
353,timbuktu,16.7735,-3.0074,40.23,11,48,6.02,ML,1728580900
354,pico truncado,-46.7949,-67.9573,14.14,19,97,7.73,AR,1728580901
355,majuro,7.0897,171.3803,27.98,83,100,0.0,MH,1728580902
356,vorgashor,67.5833,63.95,-8.96,97,13,0.67,RU,1728580903
357,shiguai,40.7058,110.2856,9.3,45,3,1.14,CN,1728580904
358,dakhla,23.6848,-15.958,23.01,73,0,6.69,EH,1728580905
359,groveport,39.8784,-82.8838,18.05,49,0,2.57,US,1728580906
360,hovd,48.0056,91.6419,9.03,38,6,0.76,MN,1728580907
361,polyarnyy,69.1989,33.4478,3.36,76,100,10.07,RU,1728580908
362,rundu,-17.9333,19.7667,29.13,11,3,3.49,NA,1728580909
363,la'ie,21.6477,-157.9253,25.62,84,31,2.68,US,1728580910
364,bichura,50.5881,107.6022,-2.72,83,18,1.76,RU,1728580913
365,nosy varika,-20.5833,48.5333,21.29,79,8,1.73,MG,1728580914
366,mont-dore,-22.2833,166.5833,18.79,89,58,2.49,NC,1728580915
367,fish hawk,27.8506,-82.2109,25.48,86,96,1.79,US,1728580916
368,gordonvale,-17.0936,145.7842,22.88,99,58,1.37,AU,1728580917
369,laguna,38.421,-121.4238,22.35,65,0,3.09,US,1728580918
370,chernyshevskiy,63.0128,112.4714,-2.87,96,100,1.89,RU,1728580919
371,margate,51.3813,1.3862,10.49,69,100,0.45,GB,1728580920
372,ulsteinvik,62.3432,5.8487,7.09,86,35,6.87,NO,1728580921
373,san ignacio,17.1561,-89.0714,29.08,61,40,3.09,BZ,1728580922
374,ola,59.5833,151.2833,-2.69,69,22,2.1,RU,1728580924
375,san-pedro,4.7485,-6.6363,26.65,79,79,3.53,CI,1728580925
376,campo verde,-20.4167,-54.0667,33.8,37,86,0.25,BR,1728580926
377,rio grande,-32.035,-52.0986,17.18,87,100,10.51,BR,1728580927
378,harstad,68.799,16.5293,5.64,90,100,6.71,NO,1728580928
379,nishinoomote,30.7333,131.0,24.14,67,15,2.86,JP,1728580929
380,muscat,23.6139,58.5922,31.69,44,21,2.37,OM,1728580813
381,boke,10.9409,-14.2967,24.38,96,100,1.25,GN,1728580931
382,antofagasta,-23.65,-70.4,18.6,61,0,5.4,CL,1728580932
383,suva,-18.1416,178.4415,22.71,100,75,0.0,FJ,1728580933
384,balkanabat,39.5108,54.3671,22.14,56,11,3.4,TM,1728580934
385,pitoa,9.3833,13.5333,26.63,66,63,0.42,CM,1728580936
386,woolgoolga,-30.1106,153.2007,15.93,82,92,2.32,AU,1728580937
387,lacombe,52.4668,-113.7353,7.96,52,1,2.24,CA,1728580938
388,taunggyi,20.7833,97.0333,17.71,95,12,1.02,MM,1728580939
389,kolonia town,6.964,158.206,28.64,70,100,1.1,FM,1728580940
390,kyaikto,17.3,97.0167,26.16,86,17,1.09,MM,1728580941
391,shindand,33.3029,62.1474,22.14,21,0,3.2,AF,1728580942
392,pyapon,16.2833,95.6833,25.29,90,23,2.23,MM,1728580943
393,levuka,50.1834,-105.4011,10.85,71,75,9.26,CA,1728580944
394,port hedland,-20.3167,118.5667,27.03,41,5,4.63,AU,1728580945
395,sitka,57.0531,-135.33,7.94,76,100,5.14,US,1728580946
396,tufesti,45.05,27.8167,20.73,46,0,2.69,RO,1728580948
397,tyukhtet,56.5389,89.3011,-3.14,69,93,1.48,RU,1728580949
398,latakia,35.5148,35.7768,24.1,70,50,1.47,SY,1728580951
399,itacarambi,-15.1022,-44.0919,34.35,34,77,3.6,BR,1728580952
400,bata,1.8639,9.7658,26.44,81,95,2.67,GQ,1728580953
401,bestobe,52.4994,73.0975,7.78,42,100,8.53,KZ,1728580954
402,akrehamn,59.2667,5.1833,8.14,66,40,13.38,NO,1728580955
403,arar,30.9753,41.0381,28.01,9,0,2.06,SA,1728580957
404,houghton,47.1219,-88.569,17.68,51,0,5.14,US,1728580959
405,saint-joseph,-21.3667,55.6167,22.21,78,71,5.52,RE,1728580960
406,xianyang,34.3378,108.7026,14.58,67,0,0.0,CN,1728580961
407,chunskiy,56.0815,99.6342,-2.38,87,95,2.99,RU,1728580962
408,new glasgow,45.5834,-62.6486,11.88,83,51,4.96,CA,1728580963
409,callao,-12.0667,-77.15,19.16,77,100,2.57,PE,1728580964
410,chui,-33.6971,-53.4616,18.83,75,89,6.63,UY,1728580965
411,okhotsk,59.3833,143.3,3.64,81,96,5.26,RU,1728580966
412,ippy,6.2679,21.2247,21.88,93,55,0.74,CF,1728580968
413,brazzaville,-4.2658,15.2832,30.77,48,98,2.31,CG,1728580969
414,shibata,37.95,139.3333,16.93,67,75,3.09,JP,1728580970
415,villa gesell,-37.2639,-56.973,17.91,65,100,8.21,AR,1728580971
416,khor,47.8861,134.9464,10.95,63,95,6.92,RU,1728580972
417,mohyliv-podilskyi,48.446,27.7982,18.01,66,0,2.45,UA,1728580973
418,mahina,-17.5065,-149.489,23.87,83,0,1.54,PF,1728580974
419,westport,41.1415,-73.3579,16.53,50,0,7.72,US,1728580975
420,horta,38.5333,-28.6333,22.79,79,75,10.29,PT,1728580976
421,ulladulla,-35.35,150.4667,13.26,79,71,2.65,AU,1728580977
422,las khorey,11.1595,48.1967,29.14,70,0,2.38,SO,1728580978
423,minas de marcona,-15.2119,-75.1103,17.52,63,62,8.92,PE,1728580980
424,genhe,50.7833,121.5167,1.04,57,84,1.29,CN,1728580981
425,ust'-kulom,61.6864,53.6902,-2.6,66,3,3.12,RU,1728580982
426,fonte boa,-2.4959,-66.2662,36.24,39,100,1.54,BR,1728580983
427,pangody,65.85,74.4859,-2.27,74,77,6.91,RU,1728580984
428,khorixas,-20.3667,14.9667,32.62,10,0,1.51,NA,1728580985
429,redencao,-4.2258,-38.7306,36.44,29,100,3.85,BR,1728580986
430,ciudad lazaro cardenas,17.9583,-102.2,27.97,76,100,0.88,MX,1728580987
431,broome,42.2506,-75.833,9.83,70,100,4.12,US,1728580988
432,kulattur,9.0167,78.2,27.87,63,68,5.18,IN,1728580989
433,isla vista,34.4133,-119.861,17.94,82,100,2.57,US,1728580885
434,nacala,-14.5428,40.6728,23.11,75,1,2.07,MZ,1728580992
435,laascaanood,8.4774,47.3597,28.62,42,58,7.0,SO,1728580993
436,bloomingdale,27.8936,-82.2404,25.05,85,98,1.79,US,1728580994
437,richlands,37.0932,-81.7937,16.32,31,0,3.09,US,1728580995
438,mudgee,-32.5943,149.5871,10.77,61,62,2.12,AU,1728580996
439,touros,-5.1989,-35.4608,28.58,58,64,6.42,BR,1728580997
440,puerto santa,-8.9906,-78.6456,19.13,82,94,4.39,PE,1728580998
441,walvis bay,-22.9575,14.5053,20.53,60,0,5.66,NA,1728580999
442,wanning,18.8003,110.3967,24.1,92,42,2.53,CN,1728581000
443,poronaysk,49.2167,143.1167,9.79,65,100,6.37,RU,1728581002
444,punta del este,-34.9667,-54.95,20.06,93,100,5.36,UY,1728581003
445,levelland,33.5873,-102.378,31.04,15,3,5.21,US,1728581004
446,revda,56.801,59.9303,-4.04,94,100,6.0,RU,1728581005
447,asino,56.9979,86.1452,-3.5,64,94,1.52,RU,1728581006
448,sinabang,2.4803,96.3801,25.75,88,97,1.82,ID,1728581007
449,naze,28.3667,129.4833,19.51,78,1,2.17,JP,1728581008
450,kailua-kona,19.6406,-155.9956,23.98,83,0,3.6,US,1728580962
451,fallon,39.4735,-118.7774,21.17,35,75,0.0,US,1728581010
452,katsuura,35.1333,140.3,17.29,84,55,5.99,JP,1728581011
453,zhanaozen,43.3,52.8,14.29,62,3,5.18,KZ,1728581012
454,namibe,-15.1961,12.1522,19.89,75,1,2.44,AO,1728581014
455,jodhpur,26.2867,73.03,29.53,43,30,3.98,IN,1728581015
456,bakanas,44.8081,76.2772,18.46,29,18,1.47,KZ,1728581016
457,rimus,16.8764,120.3966,25.96,84,96,1.58,PH,1728581017
458,monrovia,6.3005,-10.7969,27.42,74,92,2.26,LR,1728581018
459,colonia,50.9333,6.95,12.85,83,20,3.6,DE,1728581020
460,rezh,57.37,61.4043,-3.26,91,100,5.37,RU,1728581021
461,lugoba,-6.45,38.3333,24.52,63,69,3.02,TZ,1728581022
462,las palmas de gran canaria,28.0997,-15.4134,25.07,78,20,2.06,ES,1728581023
463,champerico,14.3,-91.9167,28.71,73,65,2.04,GT,1728581025
464,naguabo,18.2116,-65.7349,33.15,67,20,6.17,PR,1728581024
465,bentota,6.4254,79.9948,26.3,84,99,5.83,LK,1728581027
466,severo-yeniseyskiy,60.3725,93.0408,-8.27,95,100,2.27,RU,1728581028
467,saldanha,-33.0117,17.9442,15.14,76,100,3.04,ZA,1728581029
468,forbes,-33.3833,148.0167,11.59,54,0,2.68,AU,1728581030
469,sao mateus do sul,-25.8742,-50.3828,16.28,97,100,1.88,BR,1728581031
470,taoudenni,22.6783,-3.9836,41.12,14,8,2.7,ML,1728581032
471,sao joao da barra,-21.6403,-41.0511,22.05,82,100,6.7,BR,1728581033
472,borkum,53.5809,6.6915,12.22,63,100,9.32,DE,1728581034
473,coruripe,-10.1256,-36.1756,28.06,62,25,7.29,BR,1728581035
474,asikkala,61.2167,25.5,10.34,96,100,7.19,FI,1728581037
475,bel ombre,-4.6167,55.4167,27.91,83,40,6.69,SC,1728581038
476,sittwe,20.15,92.9,27.71,81,0,3.05,MM,1728581039
477,illizi,26.4833,8.4667,36.77,13,10,2.47,DZ,1728581040
478,breaux bridge,30.2735,-91.8993,28.03,53,0,3.6,US,1728581041
479,nelson bay,-32.7167,152.15,15.56,91,5,1.79,AU,1728581042
480,queensdale,-31.871,26.9786,25.14,18,79,3.29,ZA,1728581043
481,jakar,27.5492,90.7525,10.79,87,100,0.27,BT,1728581044
482,puerto aysen,-45.4,-72.7,10.31,74,100,2.43,CL,1728581045
483,shiyan,32.6475,110.7781,19.04,46,95,0.89,CN,1728581046
484,ostersund,63.1792,14.6357,2.25,95,75,6.17,SE,1728581047
485,loiza,18.4313,-65.8802,33.99,56,20,3.09,PR,1728581049
486,la paz,-16.5,-68.15,17.54,17,75,7.72,BO,1728581050
487,talcahuano,-36.7167,-73.1167,13.82,72,75,5.14,CL,1728581051
488,tvoroyri,61.5556,-6.8111,5.7,60,85,4.52,FO,1728581052
489,port saint john's,-31.6229,29.5448,25.38,62,43,6.45,ZA,1728581053
490,el salto,20.3333,-104.5,24.33,56,16,1.85,MX,1728581054
491,katsuren-haebaru,26.3369,127.8719,20.61,83,0,0.0,JP,1728581055
492,troitskiy,57.0603,63.7481,-2.5,94,100,5.85,RU,1728581056
493,oyem,1.5995,11.5793,21.07,92,100,0.35,GA,1728581057
494,rio gallegos,-51.6226,-69.2181,13.03,30,40,14.4,AR,1728581058
495,tibanbang,6.6315,126.1055,27.1,79,55,0.22,PH,1728581059
496,zelenoborskiy,66.845,32.3622,3.2,96,100,5.51,RU,1728581060
497,christchurch,-43.5333,172.6333,7.17,81,7,3.31,NZ,1728580804
498,novyy urgal,51.0736,132.5642,7.47,65,99,3.5,RU,1728581065
499,kuytun,54.3419,101.5036,-1.12,89,100,2.46,RU,1728581066
500,lecheng,25.1238,113.3254,19.57,68,1,0.92,CN,1728581067
501,kembe,4.6228,21.8865,22.01,95,40,1.24,CF,1728581068
502,voinjama,8.4219,-9.7478,25.31,90,65,0.25,LR,1728581069
503,latehar,23.75,84.5,23.44,85,5,1.43,IN,1728581071
504,anjozorobe,-18.4,47.8667,13.14,84,36,4.71,MG,1728581072
505,urumqi,43.801,87.6005,13.53,36,0,2.0,CN,1728581073
506,yangiyer,40.275,68.8225,21.18,36,20,1.9,UZ,1728581074
507,st. john's,47.5649,-52.7093,13.97,94,75,3.09,CA,1728581075
508,markovo,57.3206,107.0881,-1.67,88,100,3.07,RU,1728581076
509,greymouth,-42.4667,171.2,4.78,94,27,2.45,NZ,1728581077
510,santa rosa de lima,13.6247,-87.8936,27.29,79,100,0.55,SV,1728581078
511,pemangkat,1.1667,108.9667,27.08,80,100,0.96,ID,1728581079
512,yuzhno-kurilsk,44.0306,145.8556,10.99,70,100,8.67,RU,1728581080
513,san julian,21.0167,-102.1667,19.66,34,14,3.54,MX,1728581081
514,afega,-13.7973,-171.8531,24.0,94,75,1.54,WS,1728581083
515,ermelo,-26.5333,29.9833,19.08,38,82,3.56,ZA,1728581084
516,makurazaki,31.2667,130.3167,22.0,71,31,1.79,JP,1728581085
517,wangjing,24.6,94.0333,18.94,96,65,0.14,IN,1728581086
518,iwanai,42.9744,140.5089,9.84,85,100,2.09,JP,1728581087
519,yankton,42.8711,-97.3973,23.14,40,0,4.12,US,1728581088
520,cabedelo,-6.9811,-34.8339,29.37,64,86,5.41,BR,1728581089
521,sao desiderio,-12.3633,-44.9733,37.04,18,91,3.56,BR,1728581090
522,anatuya,-28.4606,-62.8347,18.56,68,100,3.06,AR,1728581091
523,hafar al-batin,28.4328,45.9708,29.32,23,0,3.09,SA,1728581092
524,kongolo,-5.3833,27.0,21.42,92,89,3.42,CD,1728581093
525,tionk essil,12.7856,-16.5217,22.92,94,100,5.83,SN,1728581095
526,chizhou,30.6578,117.4831,16.91,72,81,2.15,CN,1728581096
527,yaren,-0.5472,166.916,28.06,71,76,6.12,NR,1728581097
528,prado,-17.3411,-39.2208,27.63,65,95,4.64,BR,1728581098
529,iwon-up,40.3231,128.6553,13.02,77,0,2.4,KP,1728581099
530,holualoa,19.6228,-155.9522,21.91,88,0,3.6,US,1728581100
531,port lincoln,-34.7333,135.8667,11.75,70,100,5.4,AU,1728581101
532,netishyn,50.34,26.6417,15.75,76,1,3.74,UA,1728581102
533,la ronge,55.1001,-105.2842,12.12,54,75,3.09,CA,1728581103
534,joshimath,30.5667,79.5667,10.48,77,10,2.03,IN,1728581104
535,beytussebap,37.5694,43.1681,13.88,45,56,1.58,TR,1728581106
536,kayangel,8.0823,134.7173,28.82,75,96,3.73,PW,1728581107
537,gevrai,19.2667,75.75,25.18,80,100,3.62,IN,1728581109
538,onega,63.9061,38.1404,1.46,90,100,8.39,RU,1728581110
539,stawell,-37.05,142.7667,2.42,94,0,3.33,AU,1728581111
540,kristiansund,63.1115,7.732,4.51,93,75,1.54,NO,1728581112
541,rio hato,8.3833,-80.1667,29.75,70,40,2.06,PA,1728581115
542,decorah,43.3033,-91.7857,19.51,52,0,3.6,US,1728581116
543,turbat,26.0023,63.044,30.7,43,17,3.2,PK,1728581117
544,tuzha,57.6062,47.936,1.44,72,100,4.19,RU,1728581118
545,katabu,-4.9333,122.5167,23.99,93,86,1.79,ID,1728581119
546,nueva gerona,21.8833,-82.8,30.0,67,93,4.35,CU,1728581120
547,grand baie,-20.0182,57.5802,23.03,78,10,2.24,MU,1728580863
548,zambezi,-13.5432,23.1047,26.49,12,19,2.81,ZM,1728581122
549,susanville,40.4163,-120.653,18.79,30,90,1.23,US,1728581123
550,cannonvale,-20.2833,148.7,22.66,80,38,5.68,AU,1728581125
551,olyokminsk,60.3736,120.4264,-3.03,98,91,1.17,RU,1728581127
552,murudeshwara,14.0943,74.4845,30.0,56,93,4.36,IN,1728581128
553,kidal,18.4411,1.4078,38.45,9,70,6.13,ML,1728581129
554,soio,-6.1349,12.3689,24.84,79,53,4.12,AO,1728581130
555,road town,18.4167,-64.6167,32.02,66,40,3.6,VG,1728580894
556,guerrero negro,27.9769,-114.0611,23.36,65,5,2.99,MX,1728581078
557,sovetskiy,61.3614,63.5842,-3.12,68,7,3.42,RU,1728581133
558,salekhard,66.53,66.6019,-5.94,80,10,2.08,RU,1728581135
559,mount gambier,-37.8333,140.7667,6.28,85,11,1.67,AU,1728581136
560,mirny,62.5353,113.9611,-2.15,94,100,0.85,RU,1728581138
561,nuuk,64.1835,-51.7216,-0.66,100,75,4.63,GL,1728581139
562,tshabong,-26.05,22.45,29.49,13,4,3.62,BW,1728581140
563,kalmunai,7.4167,81.8167,26.21,84,63,2.13,LK,1728581141
564,kalevala,65.2,31.1667,3.03,97,100,4.78,RU,1728581142
565,al ain city,24.1917,55.7606,30.79,42,0,3.6,AE,1728581143
566,nowshahr,36.649,51.496,19.97,94,33,1.03,IR,1728581144
567,pont rouge,48.8833,-72.0825,8.64,78,99,5.91,CA,1728581145
568,kraslava,55.8951,27.168,16.68,70,99,6.05,LV,1728581146
569,mushie,-3.0167,16.9,25.96,76,91,1.74,CD,1728581147
570,guarapari,-20.6667,-40.4975,21.37,94,100,3.8,BR,1728581149
571,crane,31.3974,-102.3501,29.3,26,0,3.23,US,1728581150
572,iguape,-24.7081,-47.5553,22.56,87,100,6.52,BR,1728581151
573,valley city,46.9233,-98.0032,23.29,43,0,4.63,US,1728581152
574,ishigaki,24.3448,124.1572,24.07,78,70,3.6,JP,1728581153
575,aripuana,-9.1667,-60.6333,39.02,25,100,2.43,BR,1728581154
576,fort st. john,56.2499,-120.8529,4.94,60,20,6.69,CA,1728581155
577,cefalu,38.0386,14.0229,23.19,74,98,0.89,IT,1728581156
578,nangong,37.3581,115.3744,13.12,28,0,2.78,CN,1728581157
579,kundiawa,-6.0167,144.9667,14.25,95,54,1.71,PG,1728581158
580,dock junction,31.2025,-81.5168,24.99,70,100,8.23,US,1728581159
581,midvagur,62.0511,-7.1939,2.46,87,75,1.54,FO,1728581161
582,ganganagar,29.9167,73.8833,27.92,27,0,2.62,IN,1728581162
