City_ID,City,Lat,Lng,Max Temp,Humidity,Cloudiness,Wind Speed,Country,Date
0,port alfred,-33.5906,26.891,15.69,70,Clouds,6.14,ZA,1727913535
1,stanley,54.868,-1.6985,6.4,95,Clear,1.54,GB,1727913537
2,papatowai,-46.5619,169.4708,8.43,98,Rain,6.76,NZ,1727913538
3,lebu,-37.6167,-73.65,9.24,81,Clouds,9.51,CL,1727913539
4,ballina,-28.8667,153.5667,18.27,63,Clouds,6.11,AU,1727913540
5,pacific grove,36.6177,-121.9166,30.82,81,Clear,2.57,US,1727913541
6,pemangkat,1.1667,108.9667,25.64,80,Clouds,2.11,ID,1727913542
7,mount gambier,-37.8333,140.7667,19.52,43,Clouds,4.85,AU,1727913543
8,sandnessjoen,66.0217,12.6316,9.71,83,Rain,8.56,NO,1727913545
9,adamstown,-25.066,-130.1015,20.72,70,Clouds,6.1,PN,1727913546
10,waitangi,-43.9535,-176.5597,11.56,85,Clouds,9.55,NZ,1727913548
11,petawawa,45.9001,-77.3328,10.77,89,Clouds,1.03,CA,1727913549
12,port-aux-francais,-49.35,70.2167,0.07,96,Snow,14.48,TF,1727913551
13,cherdakly,54.3594,48.845,6.97,87,Clear,1.0,RU,1727913552
14,blackmans bay,-43.0167,147.3167,15.41,61,Clear,0.89,AU,1727913554
15,atafu village,-8.5421,-172.5159,28.43,73,Clear,5.53,TK,1727913555
16,kargasok,59.0556,80.8572,1.14,91,Clouds,3.45,RU,1727913558
17,evanston,42.0411,-87.6901,20.05,37,Clouds,0.45,US,1727913559
18,naama,33.2667,-0.3167,22.48,35,Clouds,5.1,DZ,1727913560
19,rossmoor,33.7856,-118.0851,31.07,54,Haze,3.6,US,1727913562
20,grytviken,-54.2811,-36.5092,-4.23,80,Snow,5.68,GS,1727913565
21,vorgashor,67.5833,63.95,2.16,96,Clouds,8.82,RU,1727913566
22,grand gaube,-20.0064,57.6608,21.32,86,Rain,0.89,MU,1727913568
23,iqaluit,63.7506,-68.5145,4.85,86,Clouds,0.0,CA,1727913569
24,iskateley,67.6803,53.1512,4.07,93,Clouds,4.39,RU,1727913570
25,fonte boa,-2.4959,-66.2662,26.33,66,Clouds,0.37,BR,1727913571
26,ariquemes,-9.9133,-63.0408,30.18,43,Clouds,0.85,BR,1727913572
27,agropoli,40.3469,14.9966,20.02,68,Clouds,3.26,IT,1727913573
28,as-suwayda,32.709,36.5695,14.18,69,Clear,0.13,SY,1727913575
29,kinango,-4.1372,39.3153,20.83,97,Clouds,1.76,KE,1727913576
30,college,64.8569,-147.8028,6.92,58,Clouds,2.06,US,1727913577
31,anadyr,64.75,177.4833,2.28,100,Rain,5.0,RU,1727913578
32,tiksi,71.6872,128.8694,-3.4,79,Clouds,3.58,RU,1727913579
33,kavieng,-2.5744,150.7967,29.72,69,Clouds,3.2,PG,1727913580
34,hithadhoo,-0.6,73.0833,28.5,74,Clouds,3.96,MV,1727913581
35,nemuro,43.3236,145.575,14.97,60,Clouds,5.58,JP,1727913583
36,lensk,60.7253,114.9278,1.12,96,Snow,8.03,RU,1727913584
37,laguna,38.421,-121.4238,40.62,14,Clear,1.54,US,1727913585
38,colonia,50.9333,6.95,11.09,82,Clouds,2.06,DE,1727913588
39,buka,40.8108,69.1986,19.63,36,Clouds,2.03,UZ,1727913590
40,yellowknife,62.456,-114.3525,3.01,76,Clouds,7.2,CA,1727913591
41,horta,38.5333,-28.6333,23.9,95,Rain,2.68,PT,1727913592
42,santa terezinha,-29.9002,-50.0904,16.46,76,Clouds,6.96,BR,1727913593
43,camana,-16.6228,-72.7111,16.34,89,Clouds,3.01,PE,1727913594
44,west island,-12.1568,96.8225,24.99,73,Clouds,5.66,CC,1727913596
45,la puebla de montalban,39.863,-4.3592,18.11,88,Clouds,9.0,ES,1727913597
46,rio grande,-32.035,-52.0986,13.41,63,Clear,7.62,BR,1727913598
47,masterton,-40.9597,175.6575,15.28,96,Rain,3.15,NZ,1727913599
48,arkhangel'sk,64.5401,40.5433,3.06,100,Clouds,2.0,RU,1727913600
49,longyearbyen,78.2186,15.6401,-7.09,79,Clear,6.69,SJ,1727913601
50,kaoma,-14.7833,24.8,21.88,51,Clouds,5.16,ZM,1727913602
51,ushuaia,-54.8,-68.3,4.81,75,Rain,10.29,AR,1727913604
52,palu,-0.8917,119.8707,27.91,82,Clouds,0.99,ID,1727913605
53,fianarantsoa,-21.4333,47.0833,14.91,95,Clouds,1.8,MG,1727913606
54,cabo san lucas,22.8909,-109.9124,32.17,51,Clear,5.14,MX,1727913355
55,sant'ambrogio di valpollicella,45.5209,10.8362,16.74,98,Clouds,1.03,IT,1727913608
56,puerto natales,-51.7236,-72.4875,4.71,87,Rain,5.26,CL,1727913609
57,labrador city,52.9463,-66.9114,10.66,76,Clouds,4.92,CA,1727913610
58,shimoda,34.6667,138.95,24.99,82,Clouds,5.61,JP,1727913612
59,georgetown,5.4112,100.3354,26.96,88,Clouds,1.54,MY,1727913491
60,teknaf,20.8624,92.3058,25.38,95,Rain,4.2,BD,1727913614
61,hawaiian paradise park,19.5933,-154.9731,28.26,74,Clear,1.34,US,1727913615
62,gadzhiyevo,69.2551,33.3362,2.16,81,Clouds,3.29,RU,1727913616
63,talnakh,69.4865,88.3972,0.89,97,Snow,3.52,RU,1727913617
64,umea,63.8284,20.2597,4.96,87,Clear,1.54,SE,1727913618
65,ancud,-41.8697,-73.8203,7.09,91,Clouds,2.23,CL,1727913619
66,sitka,57.0531,-135.33,10.34,77,Rain,1.75,US,1727913620
67,bondo,3.8146,23.6866,20.94,99,Clouds,0.53,CD,1727913622
68,udachny,66.4167,112.4,-1.69,96,Clouds,3.29,RU,1727913623
69,sao jose da coroa grande,-8.8978,-35.1478,23.9,87,Clouds,3.76,BR,1727913624
70,bredasdorp,-34.5322,20.0403,13.51,85,Clouds,7.26,ZA,1727913625
71,keflavik,64.0049,-22.5624,7.24,100,Rain,2.06,IS,1727913626
72,tura,25.5198,90.2201,23.57,97,Clouds,1.21,IN,1727913627
73,mbandaka,0.0487,18.2603,21.09,98,Rain,1.83,CD,1727913628
74,ribeira grande,38.5167,-28.7,24.32,95,Clouds,2.68,PT,1727913629
75,vilyuysk,63.7553,121.6247,1.27,91,Clouds,2.61,RU,1727913631
76,arraial do cabo,-22.9661,-42.0278,21.98,73,Clouds,5.14,BR,1727913633
77,pirallahi,40.4723,50.333,20.08,80,Clouds,9.46,AZ,1727913634
78,albany,42.6001,-73.9662,16.99,67,Clouds,0.59,US,1727913635
79,bilibino,68.0546,166.4372,-3.35,94,Snow,4.19,RU,1727913636
80,gambiran satu,-8.3939,114.1464,26.29,74,Clouds,0.56,ID,1727913637
81,wailua homesteads,22.0669,-159.378,27.64,78,Rain,3.13,US,1727913638
82,chimbote,-9.0853,-78.5783,17.9,88,Clouds,2.85,PE,1727913639
83,port elizabeth,-33.918,25.5701,15.17,86,Clouds,5.14,ZA,1727913640
84,port lincoln,-34.7333,135.8667,18.73,46,Rain,10.33,AU,1727913642
85,puerto ayora,-0.7393,-90.3518,21.42,91,Clouds,2.68,EC,1727913643
86,ilulissat,69.2167,-51.1,2.98,63,Clouds,3.53,GL,1727913644
87,wake village,33.4268,-94.1063,23.36,60,Clear,2.55,US,1727913645
88,bazarak,35.3129,69.5152,9.17,49,Clear,5.78,AF,1727913646
89,cuatro cienegas de carranza,26.9833,-102.0833,28.0,31,Clear,5.64,MX,1727913647
90,saint-pierre,-21.3393,55.4781,21.82,68,Clouds,0.51,RE,1727913648
91,lompoc,34.6391,-120.4579,27.85,46,Clouds,4.12,US,1727913649
92,port mathurin,-19.6833,63.4167,22.06,83,Clear,5.49,MU,1727913651
93,point pedro,9.8167,80.2333,28.71,76,Clouds,7.54,LK,1727913652
94,tazacorte,28.629,-17.9293,23.54,78,Clouds,8.75,ES,1727913653
95,vredendal,-31.6683,18.5012,20.02,21,Clouds,5.24,ZA,1727913654
96,edinburgh of the seven seas,-37.0676,-12.3116,14.14,86,Clouds,12.55,SH,1727913655
97,champerico,14.3,-91.9167,24.39,92,Rain,2.9,GT,1727913656
98,nar'yan-mar,67.6713,53.087,4.11,93,Clouds,4.37,RU,1727913657
99,belyy yar,53.6039,91.3903,1.94,75,Clear,1.0,RU,1727913658
100,thompson,55.7435,-97.8558,4.09,65,Rain,7.2,CA,1727913659
101,el hamma,33.8915,9.7963,27.62,35,Clear,3.68,TN,1727913660
102,eenhana,-17.4667,16.3333,20.66,16,Clear,3.17,NA,1727913662
103,bethel,41.3712,-73.414,16.2,84,Clouds,0.41,US,1727913663
104,mossel bay,-34.1831,22.146,10.96,82,Clouds,8.77,ZA,1727913664
105,margaret river,-33.95,115.0667,11.69,67,Clouds,9.53,AU,1727913665
106,onega,63.9061,38.1404,4.5,72,Rain,2.84,RU,1727913666
107,yermakovskoye,53.2831,92.4003,6.36,84,Clouds,1.42,RU,1727913667
108,jamestown,42.097,-79.2353,12.8,74,Clear,0.45,US,1727913668
109,aasiaat,68.7098,-52.8699,0.36,75,Clouds,5.05,GL,1727913669
110,selfoss,63.9331,-20.9971,7.8,90,Clouds,0.55,IS,1727913671
111,kirkwall,58.9848,-2.9587,8.31,93,Clouds,3.09,GB,1727913672
112,dukku,10.8231,10.7717,25.51,66,Clouds,3.55,NG,1727913673
113,sarmiento,-45.5882,-69.07,9.82,47,Clear,7.49,AR,1727913674
114,essaouira,31.5125,-9.77,26.72,57,Clear,3.6,MA,1727913675
115,chonchi,-42.6128,-73.8092,8.4,98,Clouds,0.23,CL,1727913676
116,as samawah,31.332,45.2944,28.57,32,Clear,3.84,IQ,1727913677
117,kodiak,57.79,-152.4072,8.59,73,Clouds,1.99,US,1727913678
118,badger,64.8,-147.5333,6.87,63,Clouds,0.0,US,1727913679
119,knyaze-volkonskoye,48.4642,135.4567,11.19,57,Clear,7.06,RU,1727913681
120,greenland,43.0362,-70.8328,13.81,76,Clouds,1.55,US,1727913682
121,mata-utu,-13.2816,-176.1745,27.52,80,Clear,5.78,WF,1727913683
122,katsuura,35.1333,140.3,22.64,91,Clouds,5.09,JP,1727913684
123,punta arenas,-53.15,-70.9167,6.06,75,Clouds,9.26,CL,1727913685
124,coquimbo,-29.9533,-71.3436,14.43,64,Clear,3.09,CL,1727913197
125,lethem,3.3803,-59.7968,29.37,59,Clouds,1.83,GY,1727913687
126,fortuna,40.5982,-124.1573,18.85,71,Clear,4.12,US,1727913688
127,invercargill,-46.4,168.35,8.9,95,Rain,4.47,NZ,1727913689
128,luganville,-15.5333,167.1667,27.24,64,Clouds,3.74,VU,1727913691
129,mukalla,14.5425,49.1242,25.75,80,Clouds,3.96,YE,1727913692
130,isafjordur,66.0755,-23.124,1.17,99,Snow,4.43,IS,1727913693
131,belozersk,60.0326,37.7957,8.46,75,Clouds,2.49,RU,1727913694
132,oranjemund,-28.55,16.4333,24.62,13,Clouds,8.26,NA,1727913696
133,margate,51.3813,1.3862,13.72,72,Clouds,1.34,GB,1727913697
134,panacan,9.2463,118.4082,27.89,77,Clouds,0.41,PH,1727913698
135,christchurch,-43.5333,172.6333,11.29,91,Rain,5.66,NZ,1727913612
136,vila franca do campo,37.7167,-25.4333,24.23,94,Clouds,4.29,PT,1727913701
137,brisas de zicatela,15.8369,-97.0419,25.47,89,Rain,2.35,MX,1727913702
138,nadym,65.5333,72.5167,2.16,88,Clouds,7.76,RU,1727913703
139,severo-yeniseyskiy,60.3725,93.0408,-0.96,97,Snow,1.29,RU,1727913704
140,puerto san jose,13.9256,-90.8244,24.64,90,Rain,3.98,GT,1727913705
141,gebeit,21.0667,36.3167,24.85,44,Clear,2.49,SD,1727913706
142,brookings,44.3114,-96.7984,21.21,44,Clear,4.74,US,1727913707
143,mmabatho,-25.85,25.6333,12.98,41,Clear,3.6,ZA,1727913708
144,sinabang,2.4803,96.3801,24.99,90,Clouds,2.92,ID,1727913709
145,kamyshevatskaya,46.4132,37.9563,14.71,73,Clear,1.65,RU,1727913711
146,sergeyevka,53.88,67.4158,2.78,60,Clear,1.65,KZ,1727913712
147,sabang,5.8933,95.3214,27.16,83,Rain,5.56,ID,1727913713
148,okoneshnikovo,54.8377,75.0834,1.87,77,Clear,2.77,RU,1727913714
149,kudahuvadhoo,2.6708,72.8944,28.45,72,Clouds,3.44,MV,1727913715
150,berdigestyakh,62.0989,126.6992,0.83,87,Clouds,3.29,RU,1727913716
151,rosarito,32.3333,-117.0333,23.51,76,Clouds,2.53,MX,1727913717
152,saipan,15.1355,145.701,28.7,78,Clouds,7.61,MP,1727913718
153,dudinka,69.4058,86.1778,1.19,98,Snow,4.52,RU,1727913719
154,opuwo,-18.0607,13.84,20.85,33,Clouds,1.73,NA,1727913720
155,whitehorse,60.7161,-135.0538,5.61,89,Clouds,7.2,CA,1727913722
156,polyarnyy,69.1989,33.4478,1.95,81,Clouds,3.08,RU,1727913723
157,la passe,45.5549,-0.8967,14.24,83,Clouds,3.76,FR,1727913724
158,dongola,19.1667,30.4833,29.49,19,Clear,6.93,SD,1727913725
159,avarua,-21.2078,-159.775,24.03,57,Clouds,4.63,CK,1727913726
160,qulsary,46.9531,54.0198,16.02,40,Clouds,7.55,KZ,1727913727
161,port shepstone,-30.7414,30.455,16.81,70,Clouds,1.6,ZA,1727913728
162,ha'il,27.5219,41.6907,25.01,31,Clear,1.03,SA,1727913729
163,codrington,-38.2667,141.9667,19.72,50,Clear,5.54,AU,1727913731
164,qaqortoq,60.7167,-46.0333,3.26,78,Clouds,1.99,GL,1727913732
165,kantharalak,14.6406,104.6499,24.98,100,Clouds,2.64,TH,1727913734
166,puerto aysen,-45.4,-72.7,5.03,99,Clouds,1.91,CL,1727913735
167,chibougamau,49.9168,-74.3659,9.79,66,Clouds,1.03,CA,1727913736
168,yuzhno-kurilsk,44.0306,145.8556,15.3,47,Clouds,4.45,RU,1727913737
169,ola,59.5833,151.2833,4.47,74,Clouds,2.52,RU,1727913738
170,belmonte,-15.8631,-38.8828,23.04,82,Clear,4.16,BR,1727913740
171,burley,42.5357,-113.7928,22.33,26,Clear,6.95,US,1727913741
172,westport,41.1415,-73.3579,17.53,78,Clear,0.0,US,1727913742
173,sabha,27.0377,14.4283,24.85,30,Clear,3.25,LY,1727913743
174,bandarbeyla,9.4942,50.8122,25.46,81,Clouds,4.94,SO,1727913744
175,ketchikan,55.3422,-131.6461,12.97,85,Rain,2.11,US,1727913745
176,isangel,-19.55,169.2667,26.06,65,Clouds,2.57,VU,1727913747
177,altay,47.8667,88.1167,5.68,36,Clouds,0.89,CN,1727913748
178,minas de marcona,-15.2119,-75.1103,14.71,73,Clouds,4.29,PE,1727913750
179,ulan bator,47.9077,106.8832,-2.93,86,Clear,0.0,MN,1727913752
180,wad medani,14.4012,33.5199,31.23,42,Clouds,2.42,SD,1727913753
181,nacala,-14.5428,40.6728,24.36,85,Clouds,4.77,MZ,1727913754
182,middelburg,-25.7751,29.4648,7.6,77,Clear,5.89,ZA,1727913635
183,nova sintra,14.8667,-24.7167,26.73,83,Clouds,5.71,CV,1727913756
184,gombi,10.1614,12.7399,21.95,81,Clouds,0.2,NG,1727913757
185,shinkafi,13.0753,6.5105,28.7,47,Clouds,3.16,NG,1727913758
186,tadjourah,12.0,42.5,27.8,59,Clouds,1.08,DJ,1727913760
187,petropavlovsk-kamchatsky,53.0452,158.6483,12.33,47,Clouds,12.0,RU,1727913761
188,plouzane,48.3833,-4.6167,12.03,100,Fog,2.06,FR,1727913492
189,mount pearl,47.5166,-52.7813,9.52,86,Clouds,5.66,CA,1727913765
190,ust-nera,64.5667,143.2,-3.29,82,Clouds,1.45,RU,1727913767
191,hafnarfjordur,64.0671,-21.9377,7.93,100,Rain,1.54,IS,1727913768
192,uyuni,-20.4597,-66.825,12.43,10,Clouds,2.6,BO,1727913769
193,giddings,30.1827,-96.9364,31.92,35,Clear,3.09,US,1727913770
194,gua musang,4.8823,101.9644,24.03,97,Clouds,0.49,MY,1727913771
195,zelenoborskiy,66.845,32.3622,2.85,82,Clouds,2.18,RU,1727913773
196,la ronge,55.1001,-105.2842,4.14,56,Clouds,10.29,CA,1727913774
197,antsiranana,-12.2787,49.2917,22.22,77,Clouds,5.9,MG,1727913775
198,hirara,24.8,125.2833,26.92,100,Rain,3.6,JP,1727913777
199,exeter,50.7236,-3.5275,10.18,90,Clouds,2.06,GB,1727913778
200,hadibu,12.65,54.0333,25.06,81,Clouds,2.63,YE,1727913779
201,alice springs,-23.7,133.8833,26.75,17,Clouds,3.6,AU,1727913780
202,vilyuchinsk,52.9306,158.4028,13.15,84,Rain,20.61,RU,1727913781
203,copala,16.65,-98.9833,25.4,89,Rain,1.48,MX,1727913782
204,tazovsky,67.4667,78.7,2.64,97,Rain,6.63,RU,1727913783
205,callao,-12.0667,-77.15,19.84,82,Clouds,4.12,PE,1727913784
206,ephraim,39.3597,-111.5863,26.56,18,Clear,5.19,US,1727913786
207,naze,28.3667,129.4833,24.51,88,Clouds,3.41,JP,1727913787
208,abbeville,50.1,1.8333,11.94,89,Clouds,4.43,FR,1727913788
209,nuuk,64.1835,-51.7216,4.93,60,Clouds,1.34,GL,1727913789
210,xilin hot,43.9667,116.0333,6.52,60,Clear,3.97,CN,1727913790
211,mana,5.6592,-53.7767,25.64,91,Clouds,2.13,GF,1727913791
212,khovd,48.0056,91.6419,8.1,43,Clouds,1.78,MN,1727913792
213,amungan,15.3652,119.9582,27.88,76,Clouds,0.43,PH,1727913793
214,utrik,11.2278,169.8474,28.33,80,Rain,7.14,MH,1727913795
215,sona,45.4388,10.8255,15.51,99,Clouds,1.03,IT,1727913796
216,howrah,22.5892,88.3103,29.0,89,Haze,2.57,IN,1727913797
217,sovetskaya gavan',48.9723,140.2878,12.3,45,Clear,3.31,RU,1727913798
218,malmberget,67.1753,20.6549,-3.69,100,Clouds,1.03,SE,1727913799
219,constantia,44.1833,28.65,11.5,74,Clouds,3.56,RO,1727913800
220,cheremushki,52.8356,91.3944,6.43,95,Rain,1.22,RU,1727913801
221,yeongdong,36.175,127.7764,13.32,65,Clouds,3.32,KR,1727913802
222,bathsheba,13.2167,-59.5167,26.34,94,Clouds,3.09,BB,1727913803
223,kilindoni,-7.9139,39.6668,24.88,77,Clouds,5.7,TZ,1727913805
224,dem'yanovo,60.3511,47.0842,8.87,65,Clouds,3.47,RU,1727913806
225,khandyga,62.6667,135.6,2.29,98,Rain,3.12,RU,1727913807
226,lucas,41.6501,-83.6666,16.16,59,Clear,3.6,US,1727913808
227,inarajan village,13.2736,144.7484,27.44,92,Clouds,3.98,GU,1727913809
228,tvoroyri,61.5556,-6.8111,9.95,91,Clouds,3.88,FO,1727913810
229,cartagena del chaira,1.3349,-74.8429,25.94,74,Clouds,1.45,CO,1727913811
230,tarauaca,-8.1614,-70.7656,30.21,44,Clouds,0.29,BR,1727913812
231,smithers,54.7804,-127.1743,8.18,87,Clouds,2.57,CA,1727913813
232,saynshand,44.8824,110.1163,7.21,59,Clear,5.71,MN,1727913815
233,saldanha,-33.0117,17.9442,16.51,53,Clouds,6.98,ZA,1727913816
234,khor,47.8861,134.9464,10.57,53,Clear,6.0,RU,1727913817
235,egilsstadir,65.2653,-14.3948,3.95,93,Clouds,1.54,IS,1727913818
236,mejit,10.2753,170.8646,28.34,78,Rain,5.51,MH,1727913819
237,sodra sandby,56.5667,16.6167,9.92,65,Clouds,7.77,SE,1727913820
238,kailua-kona,19.6406,-155.9956,29.75,85,Clouds,1.34,US,1727913821
239,satun,6.8333,100.0,25.08,92,Clouds,0.06,TH,1727913822
240,salinas,36.6777,-121.6555,31.05,48,Clear,5.14,US,1727913664
241,baoqing,46.3317,132.2111,11.7,49,Clear,4.51,CN,1727913824
242,coyhaique,-45.5752,-72.0662,1.76,99,Clouds,3.25,CL,1727913826
243,vuktyl,63.8567,57.3094,4.6,78,Clouds,2.8,RU,1727913827
244,vytegra,61.0064,36.4481,9.9,73,Clouds,2.84,RU,1727913828
245,lycksele,64.5954,18.6735,-2.07,100,Fog,0.0,SE,1727913829
246,amga,60.8953,131.9608,2.44,85,Clouds,1.61,RU,1727913830
247,zyryanskoye,56.8306,86.6258,4.6,78,Clouds,3.62,RU,1727913831
248,lihue,21.9789,-159.3672,28.77,68,Rain,3.09,US,1727913832
249,flin flon,54.7682,-101.865,5.91,52,Clouds,6.69,CA,1727913835
250,afaahiti,-17.75,-149.2833,25.29,78,Rain,3.31,PF,1727913836
251,morehead city,34.7229,-76.726,23.33,82,Clouds,2.06,US,1727913837
252,sisimiut,66.9395,-53.6735,5.59,61,Clouds,4.12,GL,1727913838
253,yanykurgan,43.915,67.2481,16.85,37,Clouds,2.5,KZ,1727913839
254,mili,6.0815,171.735,28.35,70,Rain,0.49,MH,1727913840
255,zinder,13.8072,8.9881,30.93,32,Clouds,1.99,NE,1727913841
256,tevriz,57.509,72.4042,1.48,88,Clouds,2.31,RU,1727913842
257,santana,-0.0583,-51.1817,28.1,78,Clouds,3.6,BR,1727913844
258,thohoyandou,-22.9456,30.485,12.85,72,Clouds,4.57,ZA,1727913845
259,moranbah,-22.0016,148.0466,24.3,41,Clear,8.83,AU,1727913846
260,puerto deseado,-47.7503,-65.8938,7.95,69,Clouds,7.6,AR,1727913847
261,san antonio de pale,-1.4014,5.6325,24.61,79,Clouds,4.59,GQ,1727913848
262,linares,-35.85,-71.6,8.14,88,Clouds,1.98,CL,1727913849
263,bamboo flat,11.7,92.7167,25.05,100,Mist,2.57,IN,1727913850
264,newcastle under lyme,53.0,-2.2333,7.36,90,Clear,0.45,GB,1727913851
265,susuman,62.7833,148.1667,-3.68,88,Clouds,1.15,RU,1727913853
266,queenstown,-31.8976,26.8753,9.51,77,Clouds,1.62,ZA,1727913854
267,zhalantun,48.0,122.7167,10.98,51,Clouds,1.89,CN,1727913855
268,hermanus,-34.4187,19.2345,14.89,84,Clouds,7.96,ZA,1727913856
269,neiafu,-18.65,-173.9833,26.38,94,Rain,6.17,TO,1727913857
270,poronaysk,49.2167,143.1167,12.79,55,Clear,8.8,RU,1727913859
271,luderitz,-26.6481,15.1594,23.82,18,Clouds,6.19,NA,1727913860
272,klyuchi,52.2667,79.1667,2.67,66,Clear,3.33,RU,1727913861
273,tchintabaraden,15.8969,5.7985,34.43,19,Clouds,2.69,NE,1727913862
274,kapa'a,22.0752,-159.319,29.18,73,Rain,3.09,US,1727913863
275,vadso,70.0744,29.7487,1.09,86,Clouds,4.12,NO,1727913864
276,pyhajarvi,67.0701,27.2176,-0.81,83,Clouds,0.47,FI,1727913866
277,greymouth,-42.4667,171.2,11.06,88,Clouds,2.94,NZ,1727913621
278,ghat,24.9647,10.1728,27.76,27,Clear,1.2,LY,1727913868
279,namibe,-15.1961,12.1522,18.79,82,Clouds,4.93,AO,1727913870
280,rongelap,11.1635,166.8941,28.65,78,Rain,6.57,MH,1727913871
281,la'ie,21.6477,-157.9253,30.66,69,Clear,5.89,US,1727913872
282,lerwick,60.1545,-1.1494,9.49,83,Clouds,2.19,GB,1727913873
283,astrakhan,46.3497,48.0408,15.93,55,Clear,2.0,RU,1727913631
284,aitape,-3.1374,142.3475,29.75,65,Clouds,1.27,PG,1727913875
285,uvalde,29.3669,-99.767,31.55,26,Clear,4.63,US,1727913876
286,dzuunmod,48.2199,97.3744,3.64,51,Clouds,3.5,MN,1727913878
287,miri,4.4148,114.0089,24.08,100,Rain,0.0,MY,1727913880
288,vasto,42.1243,14.7059,18.5,75,Rain,3.15,IT,1727913882
289,villanueva de cordoba,38.3228,-4.6287,17.35,90,Clouds,4.85,ES,1727913883
290,labytnangi,66.6572,66.4183,3.72,77,Clouds,7.63,RU,1727913885
291,misliyah,17.4599,42.5572,29.87,71,Clear,1.16,SA,1727913886
292,roma,43.2128,-75.4557,14.09,99,Clouds,0.45,US,1727913887
293,murun-kuren,49.6342,100.1625,9.05,51,Clouds,1.24,MN,1727913888
294,vsetin,49.3387,17.9962,10.49,94,Clouds,0.45,CZ,1727913889
295,glenvale,-27.5648,151.9076,16.6,61,Clouds,3.58,AU,1727913890
296,lubango,-14.9172,13.4925,18.92,68,Clear,2.57,AO,1727913891
297,puerto lempira,15.2667,-83.7667,30.08,70,Clouds,4.12,HN,1727913892
298,kone,-21.0595,164.8658,27.04,42,Clouds,4.85,NC,1727913896
299,mpulungu,-8.7623,31.1141,25.16,47,Clouds,5.19,ZM,1727913897
300,kolonia town,6.964,158.206,29.06,79,Rain,2.06,FM,1727913898
301,tual,-5.6667,132.75,26.58,85,Clouds,7.79,ID,1727913899
302,karasburg,-28.0167,18.75,16.76,9,Clouds,5.89,NA,1727913900
303,isla mujeres,21.2311,-86.731,29.03,84,Rain,4.49,MX,1727913901
304,fort bragg,35.139,-79.006,22.91,88,Clear,2.06,US,1727913903
305,yangju,37.8331,127.0617,15.2,56,Clear,2.08,KR,1727913904
306,jayapura,-2.5333,140.7,28.66,79,Clouds,1.53,ID,1727913824
307,arauca,7.0847,-70.7591,30.98,70,Clouds,1.03,CO,1727913906
308,wakkanai,45.4094,141.6739,12.99,67,Clouds,3.09,JP,1727913907
309,dwarka,22.2394,68.9678,27.42,78,Clouds,6.01,IN,1727913908
310,turbat,26.0023,63.044,27.7,66,Clear,1.17,PK,1727913909
311,saurimo,-9.6608,20.3916,20.21,69,Clouds,1.43,AO,1727913910
312,east london,-33.0153,27.9116,15.77,72,Clouds,3.98,ZA,1727913913
313,happy valley-goose bay,53.3168,-60.3315,8.17,87,Clear,0.0,CA,1727913914
314,vernon,50.2581,-119.2691,18.29,33,Clouds,1.03,CA,1727913634
315,carnarvon,-24.8667,113.6333,17.48,65,Clouds,5.84,AU,1727913916
316,kayes,14.0,-11.0,25.14,86,Clouds,2.38,ML,1727913918
317,ouallam,14.3188,2.0866,29.2,56,Clouds,3.39,NE,1727913919
318,boa vista,2.8197,-60.6733,26.99,74,Clouds,4.63,BR,1727913921
319,satow-oberhagen,54.0,11.8833,10.82,75,Clouds,4.59,DE,1727913922
320,olonkinbyen,70.9221,-8.7187,-1.53,68,Clouds,6.57,SJ,1727913923
321,saudarkrokur,65.7461,-19.6394,5.75,94,Rain,2.47,IS,1727913924
322,vorkuta,67.5,64.0,2.31,96,Clouds,8.84,RU,1727913925
323,santa maria,-29.6842,-53.8069,15.61,63,Clouds,0.51,BR,1727913926
324,balabac,7.9868,117.0645,28.31,79,Clouds,2.86,PH,1727913927
325,geraldton,-28.7667,114.6,16.23,72,Clouds,7.72,AU,1727913928
326,hohhot,40.8106,111.6522,0.16,86,Clear,2.0,CN,1727913929
327,inhambane,-23.865,35.3833,20.51,64,Clouds,7.39,MZ,1727913931
328,krumovgrad,41.4667,25.65,12.22,87,Clear,2.01,BG,1727913932
329,portland,45.5234,-122.6762,20.75,40,Clear,5.14,US,1727913519
330,san andres,12.5847,-81.7006,28.01,78,Clouds,1.54,CO,1727913934
331,cam ranh,11.9214,109.1591,25.98,89,Rain,3.6,VN,1727913935
332,campo maior,-4.8278,-42.1686,32.11,35,Clouds,1.95,BR,1727913937
333,vodnyy,63.5046,53.4095,5.67,84,Clouds,1.68,RU,1727913938
334,puerto madryn,-42.7692,-65.0385,8.44,67,Clouds,8.57,AR,1727913939
335,faya-largeau,17.9257,19.1043,31.3,26,Clear,7.89,TD,1727913941
336,oulmes,33.4258,-6.0014,17.89,61,Clouds,1.71,MA,1727913942
337,libiaz,50.104,19.3157,9.86,94,Clouds,2.04,PL,1727913943
338,ko pha ngan,9.7578,100.0291,24.38,73,Clouds,3.1,TH,1727913944
339,cole harbour,44.6724,-63.4751,13.71,84,Clouds,3.09,CA,1727913945
340,kilju,40.9642,129.3278,14.26,45,Clear,0.31,KP,1727913946
341,vincennes,48.85,2.4333,12.76,88,Clouds,5.36,FR,1727913947
342,toropets,56.4978,31.6353,8.32,92,Clouds,0.89,RU,1727913948
343,dame-marie,18.5667,-74.4167,27.81,79,Clouds,0.53,HT,1727913949
344,quepos,9.4236,-84.1652,25.92,84,Clouds,0.82,CR,1727913951
345,mount isa,-20.7333,139.5,29.87,17,Clear,4.63,AU,1727913738
346,al ghayzah,16.2079,52.176,25.08,84,Clouds,3.05,YE,1727913953
347,usinsk,65.9939,57.5281,2.22,83,Clouds,6.22,RU,1727913954
348,ambovombe,-25.1667,46.0833,18.18,66,Clouds,5.94,MG,1727913955
349,holdrege,40.4403,-99.3698,26.95,26,Clear,3.6,US,1727913956
350,hamilton,39.1834,-84.5333,17.76,72,Clear,0.89,US,1727913957
351,banda aceh,5.5577,95.3222,25.93,82,Clouds,3.12,ID,1727913958
352,saint-joseph,-21.3667,55.6167,21.21,83,Clouds,2.13,RE,1727913959
353,mendi,-6.1761,143.6513,20.62,63,Clouds,2.02,PG,1727913962
354,novodvinsk,64.4165,40.8122,2.86,83,Clouds,1.93,RU,1727913964
355,paracuru,-3.41,-39.0306,25.49,84,Clear,6.59,BR,1727913965
356,levelland,33.5873,-102.378,26.51,22,Clear,6.03,US,1727913966
357,laojunmiao,39.8333,97.7333,7.11,23,Clouds,0.94,CN,1727913967
358,serdar,38.9764,56.2757,21.46,29,Clouds,1.56,TM,1727913968
359,fuyang,32.9,115.8167,13.97,45,Clear,1.71,CN,1727913969
360,mantua,45.1667,10.7833,16.66,97,Clouds,0.89,IT,1727913971
361,rawah,34.4816,41.9093,23.86,39,Clear,2.74,IQ,1727913972
362,praia da vitoria,38.7333,-27.0667,25.14,83,Clouds,5.73,PT,1727913973
363,bikenibeu village,1.3673,173.1241,31.98,66,Clouds,5.14,KI,1727913974
364,vila do maio,15.1333,-23.2167,26.44,80,Clouds,4.13,CV,1727913976
365,papao,-17.75,-149.55,29.82,76,Rain,3.37,PF,1727913978
366,karratha,-20.7377,116.8463,23.1,50,Clear,5.33,AU,1727913979
367,remire-montjoly,4.9167,-52.2667,28.02,89,Clear,2.57,GF,1727913980
368,st. john's,47.5649,-52.7093,9.98,85,Clouds,8.05,CA,1727913981
369,yigo village,13.5361,144.8886,26.19,88,Clouds,3.6,GU,1727913982
370,tsiombe,-25.3,45.4833,18.66,57,Clouds,5.5,MG,1727913983
371,acajutla,13.5928,-89.8275,25.51,87,Clouds,3.85,SV,1727913984
372,turkestan,43.3333,68.25,17.02,35,Clouds,3.12,KZ,1727913985
373,luwero,0.8492,32.4731,18.75,96,Rain,0.7,UG,1727913986
374,kijang,35.2442,129.2139,17.85,81,Rain,9.44,KR,1727913987
375,siwa oasis,29.2041,25.5195,23.12,54,Clear,3.91,EG,1727913989
376,pont rouge,48.8833,-72.0825,11.81,98,Clouds,2.06,CA,1727913990
377,hafar al-batin,28.4328,45.9708,28.32,21,Clear,5.14,SA,1727913991
378,ta`u,-14.2336,-169.5144,26.47,80,Rain,8.51,AS,1727913992
379,kingscliff,-28.2667,153.5667,21.08,56,Clouds,8.75,AU,1727913993
380,bel ombre,-4.6167,55.4167,25.91,89,Rain,1.03,SC,1727913994
381,lexington,37.9887,-84.4777,18.0,66,Clear,2.06,US,1727913957
382,takoradi,4.8845,-1.7554,24.78,88,Clouds,3.36,GH,1727913996
383,uliastay,47.7417,96.8444,3.81,44,Clouds,1.59,MN,1727913997
384,fort wellington,6.4,-57.6,28.09,76,Clouds,2.28,GY,1727913998
385,coahuayana de hidalgo,18.7,-103.6583,27.26,92,Rain,1.71,MX,1727913999
386,crucecita,-28.95,-58.9833,15.96,44,Clear,3.39,AR,1727914001
387,seydi,39.4816,62.9137,21.75,16,Clouds,6.84,TM,1727914002
388,pakenham,-38.0667,145.4833,20.89,64,Clear,1.48,AU,1727914003
389,nogliki,51.8333,143.1667,11.06,61,Clear,8.42,RU,1727914004
390,flying fish cove,-10.4217,105.6791,24.82,94,Clouds,3.6,CX,1727914005
391,wuzhou,23.4833,111.3167,17.85,56,Clear,1.07,CN,1727914006
392,padangsidempuan,1.3667,99.2667,22.64,97,Clouds,0.81,ID,1727914007
393,palikir - national government center,6.9248,158.1611,28.47,79,Rain,2.06,FM,1727914008
394,puerto armuelles,8.2833,-82.8667,27.27,74,Clouds,1.34,PA,1727914009
395,kibakwe,-6.7167,36.3667,16.58,92,Clouds,1.58,TZ,1727914011
396,qarauyl,48.9451,79.255,6.19,48,Clouds,5.61,KZ,1727914012
397,taiynsha,53.8478,69.7639,2.81,63,Clear,1.58,KZ,1727914013
398,nikolayevsk-on-amure,53.1406,140.73,9.47,52,Clouds,4.0,RU,1727914014
399,san patricio,28.017,-97.5169,28.97,56,Clouds,5.4,US,1727914015
400,acarau,-2.8856,-40.12,25.52,83,Clouds,8.21,BR,1727914016
401,santo antonio do ica,-3.1022,-67.9397,27.38,67,Clouds,1.82,BR,1727914017
402,kosong,38.3788,128.4676,16.66,56,Clouds,4.04,KR,1727914018
403,madera,37.1666,-119.8343,39.37,20,Clear,6.76,US,1727913670
404,puan,35.7281,126.7319,14.94,72,Rain,3.71,KR,1727914020
405,broome,42.2506,-75.833,14.45,84,Clouds,1.34,US,1727914022
406,sechura,-5.5569,-80.8222,19.41,79,Clouds,7.13,PE,1727914023
407,avrig,45.7167,24.3833,7.56,71,Clouds,1.42,RO,1727914024
408,lauro de freitas,-12.8944,-38.3272,23.73,77,Clear,6.28,BR,1727914025
409,contai,21.7786,87.7536,25.78,86,Clouds,2.56,IN,1727914026
410,olyokminsk,60.3736,120.4264,2.12,88,Clouds,6.66,RU,1727914027
411,garoowe,8.4054,48.4845,23.66,69,Clouds,4.49,SO,1727914028
412,lively,46.4334,-81.1498,11.12,67,Clouds,2.41,CA,1727914030
413,bengkulu,-3.8004,102.2655,24.07,86,Clouds,1.95,ID,1727914031
414,impfondo,1.6381,18.0667,21.71,99,Rain,2.48,CG,1727914032
415,beloyarskiy,63.7119,66.6722,2.36,76,Clouds,3.02,RU,1727914033
416,usogorsk,63.4106,48.6872,5.36,88,Clouds,1.24,RU,1727914034
417,sangkhla buri,15.1555,98.4536,22.45,100,Clouds,0.76,TH,1727914035
418,dunedin,-45.8742,170.5036,8.22,99,Rain,3.13,NZ,1727914036
419,phan rang-thap cham,11.5667,108.9833,26.92,82,Rain,1.7,VN,1727914037
420,oravita,45.0325,21.6894,13.15,56,Clouds,4.31,RO,1727914038
421,visby,57.6409,18.296,10.12,71,Clouds,4.63,SE,1727914039
422,alotau,-10.3069,150.4462,24.28,95,Clouds,1.72,PG,1727914041
423,varash,51.3485,25.8497,10.32,77,Clouds,3.29,UA,1727914043
424,forster,-32.1667,152.5167,19.65,56,Clouds,3.15,AU,1727914044
425,thunder bay,48.4001,-89.3168,11.93,61,Clouds,2.69,CA,1727914045
426,edson,53.5835,-116.4356,8.13,63,Clouds,0.31,CA,1727914046
427,kenitra,34.261,-6.5802,22.42,93,Clouds,0.87,MA,1727914047
428,byron bay,-28.65,153.6167,18.5,63,Clouds,5.42,AU,1727914049
429,geneina,13.45,22.45,25.04,60,Clouds,3.06,SD,1727914050
430,salalah,17.0151,54.0924,25.05,83,Clouds,2.57,OM,1727914051
431,aleksandrovsk-sakhalinskiy,50.8975,142.1561,11.28,58,Clear,8.46,RU,1727914052
432,tangalle,6.024,80.7911,25.71,90,Clouds,3.01,LK,1727914053
433,carloforte,39.145,8.3058,20.47,86,Clouds,3.85,IT,1727914054
434,mohr,54.3528,9.7167,10.08,89,Clouds,4.12,DE,1727914055
435,khorugh,37.4897,71.553,5.96,48,Clear,1.27,TJ,1727914057
436,santa cruz,-17.8,-63.1667,29.7,62,Clouds,1.03,BO,1727914058
437,chengde,40.9725,117.9361,9.37,57,Clear,0.76,CN,1727914060
438,inongo,-1.95,18.2667,21.14,99,Rain,1.75,CD,1727914062
439,mhango,-3.2833,32.85,22.13,52,Clouds,4.66,TZ,1727914063
440,pisco,-13.7,-76.2167,17.79,88,Clear,2.06,PE,1727914064
441,urangan,-25.3,152.9,22.03,58,Clouds,7.84,AU,1727914065
442,kyongsong,41.5878,129.6061,14.25,46,Clear,0.17,KP,1727914068
443,bubaque,11.2833,-15.8333,27.29,80,Rain,3.02,GW,1727914069
444,ladovskaya balka,45.6297,41.4023,11.08,82,Clouds,2.34,RU,1727914290
445,lapithos,35.3375,33.1792,23.0,63,Clear,2.0,CY,1727914291
446,biograd na moru,43.9433,15.4519,17.39,91,Rain,5.29,HR,1727914292
447,port saint john's,-31.6229,29.5448,16.22,73,Clouds,1.99,ZA,1727914293
448,ar ruseris,11.8659,34.3869,25.15,77,Clouds,2.48,SD,1727914294
449,thinadhoo,0.5333,72.9333,28.81,72,Clouds,3.54,MV,1727914297
450,mhamid,29.82,-5.72,30.96,25,Clear,2.5,MA,1727914298
451,galesong,-5.3166,119.3661,28.67,64,Clouds,2.74,ID,1727914299
452,goundam,16.4145,-3.6708,34.35,26,Clouds,3.08,ML,1727914302
453,bontang,0.1333,117.5,26.12,83,Rain,1.27,ID,1727914304
454,cambria,35.5641,-121.0808,27.7,38,Clear,4.76,US,1727914305
455,palmer,42.1584,-72.3287,14.18,70,Clouds,0.0,US,1727914306
456,san martin de los andes,-40.1604,-71.3486,-1.79,96,Clouds,2.05,AR,1727914307
457,enewetak,11.3474,162.3373,29.14,75,Clouds,6.74,MH,1727914308
458,camarinas,43.1311,-9.1817,16.07,96,Clouds,2.14,ES,1727914309
459,karamay,45.6004,84.8661,17.93,27,Clouds,5.89,CN,1727914310
460,botelhos,-21.6333,-46.395,23.53,27,Clouds,0.48,BR,1727914312
461,barauli,26.4,84.5833,25.63,80,Clouds,1.19,IN,1727914313
462,cidreira,-30.1811,-50.2056,16.22,73,Clouds,6.81,BR,1727914315
463,walvis bay,-22.9575,14.5053,13.15,89,Clouds,3.96,NA,1727914316
464,mizdah,31.4451,12.9801,24.14,31,Clear,2.55,LY,1727914317
465,charlottetown,46.2352,-63.1267,10.11,93,Clear,1.34,CA,1727914318
466,matoury,4.8483,-52.3317,27.98,89,Clear,2.57,GF,1727914319
467,mitu,1.1983,-70.1733,27.17,70,Rain,1.23,CO,1727914320
468,swift current,50.2834,-107.8014,10.13,43,Clouds,6.53,CA,1727914321
469,winona,43.9666,-91.7668,18.88,30,Clear,0.0,US,1727915615
470,hammerfest,70.6634,23.6821,3.25,75,Clouds,2.06,NO,1727915617
471,villa gesell,-37.2639,-56.973,9.0,72,Clear,6.14,AR,1727915618
472,quchan,37.106,58.5095,17.77,30,Clear,1.52,IR,1727915619
473,misratah,32.3754,15.0925,24.82,63,Clear,5.98,LY,1727915620
474,aras-asan,8.8908,126.3033,28.52,72,Rain,0.11,PH,1727915621
475,sultanpur,26.2667,82.0667,25.24,76,Clouds,1.64,IN,1727915622
476,saint-philippe,-21.3585,55.7679,21.63,82,Clear,1.47,RE,1727915623
477,dongtai,32.8523,120.3095,18.14,59,Clear,5.73,CN,1727915625
478,lamar,33.6668,-95.5836,25.95,51,Clear,3.09,US,1727915626
479,dien bien phu,21.3833,103.0167,23.07,74,Clouds,1.45,VN,1727915627
480,daru,-9.0763,143.2092,27.27,73,Clouds,8.43,PG,1727915628
481,bilaspur,22.0833,82.15,24.3,88,Clouds,1.67,IN,1727915629
482,sindgi,16.9167,76.2333,25.43,80,Clouds,2.76,IN,1727915630
483,kisanga,-7.4362,37.7034,21.99,89,Clouds,1.34,TZ,1727915631
484,las vegas,36.175,-115.1372,39.38,7,Clear,2.06,US,1727915136
485,tulun,54.5611,100.5792,3.47,74,Clouds,0.99,RU,1727915633
486,new norfolk,-42.7826,147.0587,17.62,42,Clear,1.78,AU,1727915635
487,burabay,53.0838,70.3138,1.0,68,Clear,1.42,KZ,1727915636
488,port douglas,-16.4833,145.4667,24.86,65,Clouds,7.67,AU,1727915637
489,tirumullaivasal,11.2333,79.8333,26.99,82,Clouds,5.0,IN,1727915638
490,ribeira brava,32.65,-17.0667,24.35,83,Clear,1.18,PT,1727915640
491,galich,58.3797,42.3475,9.87,75,Clouds,3.01,RU,1727915642
492,shetpe,44.1667,52.1167,17.91,39,Clouds,6.08,KZ,1727915645
493,luanda,-8.8368,13.2343,24.0,78,Rain,2.57,AO,1727915646
494,panaba,21.2833,-88.2667,26.5,81,Clouds,5.34,MX,1727915647
495,troitsk,54.0979,61.5773,3.64,49,Clear,0.37,RU,1727915648
496,tirmiz,37.2242,67.2783,19.05,55,Clear,4.12,UZ,1727915649
497,wenchang,30.904,118.4887,16.73,62,Clouds,2.42,CN,1727915650
498,weihai,37.5017,122.1136,16.54,51,Clear,3.51,CN,1727915652
499,portsmouth,50.799,-1.0913,12.34,69,Clouds,2.24,GB,1727915653
500,ponta delgada,37.7333,-25.6667,24.4,94,Clouds,4.63,PT,1727915654
501,morondava,-20.2833,44.2833,25.3,64,Clear,6.97,MG,1727915655
502,guerrero negro,27.9769,-114.0611,21.26,80,Clear,5.88,MX,1727915656
503,salaya,22.3167,69.6,27.11,81,Clouds,5.58,IN,1727915657
504,turpan,42.9333,89.1667,19.14,25,Clouds,0.54,CN,1727915659
505,pasuquin,18.3328,120.6177,25.97,100,Clouds,3.6,PH,1727915660
506,el calafate,-50.3408,-72.2768,4.21,74,Clouds,3.44,AR,1727915661
507,touros,-5.1989,-35.4608,24.79,80,Clouds,6.22,BR,1727915662
508,rabigh,22.7986,39.0349,28.17,59,Clear,2.03,SA,1727915664
509,al muwayh,22.4333,41.7583,25.05,25,Clear,2.19,SA,1727915665
510,oban,56.4127,-5.4706,7.98,83,Clear,1.73,GB,1727915667
511,zhoushan,30.0108,122.2047,21.88,59,Clouds,9.66,CN,1727915668
512,gamba,-2.65,10.0,23.65,88,Rain,3.47,GA,1727915669
513,sesheke,-17.4759,24.2968,23.21,51,Clouds,6.62,ZM,1727915670
514,esenyurt,41.0333,28.6753,15.51,82,Clear,1.54,TR,1727915671
515,sur,22.5667,59.5289,29.12,61,Clear,2.66,OM,1727915673
516,sokur,55.2093,83.319,3.99,68,Clouds,2.45,RU,1727915674
517,antofagasta,-23.65,-70.4,15.6,84,Clouds,1.44,CL,1727915675
518,pedro juan caballero,-22.5472,-55.7333,24.52,69,Clear,5.56,PY,1727915677
519,ubari,26.5921,12.7805,25.04,27,Clear,2.65,LY,1727915678
520,andrews,32.3187,-102.5457,25.04,39,Clear,3.81,US,1727915679
521,amurzet,47.6967,131.0981,12.94,48,Clear,6.55,RU,1727915680
522,ulaangom,49.9811,92.0667,9.45,55,Clouds,1.61,MN,1727915681
523,nuku'alofa,-21.1333,-175.2,25.19,88,Clouds,5.14,TO,1727915683
524,porto seguro,-16.4497,-39.0647,24.29,83,Clear,3.09,BR,1727915684
525,port antonio,18.18,-76.4612,26.73,86,Clouds,2.35,JM,1727915685
526,kerikeri,-35.2268,173.9474,19.39,61,Clear,3.13,NZ,1727915686
527,agat village,13.3886,144.6585,28.75,89,Mist,4.63,GU,1727915688
528,tromso,69.6496,18.957,5.01,60,Clouds,4.63,NO,1727915689
529,maumere,-8.6199,122.2111,29.38,62,Clear,1.24,ID,1727915690
530,lavrio,37.7145,24.0565,15.53,71,Clear,2.1,GR,1727915691
531,peace river,56.2501,-117.286,4.17,70,Clouds,1.54,CA,1727915693
532,urzhar,47.093,81.6294,12.06,47,Clouds,3.22,KZ,1727915694
533,tolanaro,-25.0319,46.9987,18.04,88,Rain,8.0,MG,1727915695
534,fale old settlement,-9.3852,-171.2468,28.03,76,Rain,6.43,TK,1727915697
535,vangaindrano,-23.35,47.6,19.55,83,Rain,6.46,MG,1727915698
536,gorontalo,0.5412,123.0595,30.89,60,Clouds,1.23,ID,1727915699
537,totoras,-32.5844,-61.1685,12.43,24,Clear,3.71,AR,1727915701
538,juankoski,63.0667,28.35,4.98,95,Clouds,2.08,FI,1727915702
539,sarakhs,36.5449,61.1577,25.85,19,Clear,2.87,IR,1727915703
540,licheng,23.2955,113.8284,21.96,56,Clouds,2.94,CN,1727915704
541,barah,13.7,30.3667,29.87,51,Clouds,3.8,SD,1727915706
542,helsby,53.274,-2.7691,7.97,90,Clouds,3.09,GB,1727915708
543,progreso,21.2833,-89.6667,26.15,85,Rain,2.89,MX,1727915709
544,kavadarci,41.4331,22.0119,12.18,63,Clouds,1.58,MK,1727915710
545,altamont,42.2068,-121.7372,25.55,37,Clear,2.24,US,1727915438
546,uruzgan,32.8333,66.0,16.96,30,Clear,3.26,AF,1727915713
547,massawa,15.6097,39.45,30.61,71,Clear,0.46,ER,1727915714
548,duiwelskloof,-23.6934,30.14,10.99,85,Clouds,3.07,ZA,1727915715
549,lizzano,40.391,17.4476,22.05,77,Clouds,3.86,IT,1727915716
550,baymak,52.5933,58.3225,1.53,58,Clear,3.01,RU,1727915717
551,matai,-8.3,31.5167,16.83,57,Clouds,3.41,TZ,1727915718
552,calca,-13.3333,-71.95,16.64,66,Clouds,3.73,PE,1727915719
553,tarawa,1.419,172.984,32.05,66,Rain,5.14,KI,1727915721
554,sabalgarh,26.25,77.4,24.3,72,Clear,3.84,IN,1727915722
555,reggane,26.7158,0.1714,31.83,17,Clear,5.08,DZ,1727915723
556,wynyard,-41.0,145.7167,15.66,78,Clouds,7.6,AU,1727915724
557,segezha,63.7415,34.3222,6.21,83,Rain,5.83,RU,1727915725
558,mahibadhoo,3.7833,72.9667,28.63,73,Clouds,4.7,MV,1727915726
559,bardai,11.65,7.2333,23.38,68,Clouds,2.62,NG,1727915727
560,kingston,17.997,-76.7936,29.53,79,Clouds,4.12,JM,1727915728
561,halifax,44.6453,-63.5724,14.0,85,Clouds,0.51,CA,1727915430
562,moab,38.5733,-109.5498,32.03,24,Clear,0.3,US,1727915651
563,yonan-up,37.9089,126.1611,14.76,53,Clear,4.14,KP,1727915733
564,itaituba,-4.2761,-55.9836,24.48,84,Clouds,0.8,BR,1727915734
565,severomorsk,69.0689,33.4162,1.14,84,Clouds,2.44,RU,1727915735
566,uaua,-9.8414,-39.4817,23.57,66,Clear,7.85,BR,1727915736
567,arno,60.1167,18.6333,8.59,78,Clear,4.09,SE,1727915737
568,abu jibeha,11.4562,31.2285,23.39,74,Clouds,1.9,SD,1727915739
